{
  "provinceId": 10,
  "provinceName": "tỉnh Quảng Ninh",
  "mahc": 3,
  "wards": [
    {
      "id": 572,
      "code": "0572",
      "name": "An Khánh",
      "type": "xã",
      "area": 45.09,
      "population": 20104,
      "adminCenter": "Trụ sở Đảng ủy, HĐND, UBND xã Cù Vân",
      "longitude": 105.722,
      "latitude": 21.6276,
      "beforeMerger": "Xã Cù Vân, Xã Hà Thượng, Xã An Khánh",
      "wardCode": 1139
    },
    {
      "id": 573,
      "code": "0573",
      "name": "Ba Bể",
      "type": "xã",
      "area": 148.08,
      "population": 11773,
      "adminCenter": "Trụ sở Đảng ủy, HĐND, UBND xã Khang Ninh",
      "longitude": 105.627,
      "latitude": 22.4387,
      "beforeMerger": "Xã Cao Thượng, Xã Nam Mẫu, Xã Khang Ninh",
      "wardCode": 1104
    },
    {
      "id": 574,
      "code": "0574",
      "name": "Bá Xuyên",
      "type": "phường",
      "area": 21.13,
      "population": 20065,
      "adminCenter": "Trụ sở Đảng ủy, HĐND, UBND xã Bá Xuyên",
      "longitude": 105.806,
      "latitude": 21.4666,
      "beforeMerger": "Phường Mỏ Chè, Phường Châu Sơn, Xã Bá Xuyên",
      "wardCode": 1146
    },
    {
      "id": 575,
      "code": "0575",
      "name": "Bắc Kạn",
      "type": "phường",
      "area": 72,
      "population": 25387,
      "adminCenter": "Trụ sở Đảng ủy, HĐND, UBND Thành ủy - HĐND - UBND TP Bắc Kạn",
      "longitude": 105.86,
      "latitude": 22.1085,
      "beforeMerger": "Phường Sông Cầu, Phường Phùng Chí Kiên, Phường Xuất Hóa, Xã Nông Thượng",
      "wardCode": 1194
    },
    {
      "id": 576,
      "code": "0576",
      "name": "Bách Quang",
      "type": "phường",
      "area": 35.02,
      "population": 26668,
      "adminCenter": "Trụ sở Đảng ủy, HĐND, UBND phường Bách Quang",
      "longitude": 105.869,
      "latitude": 21.4954,
      "beforeMerger": "Phường Lương Sơn, Phường Bách Quang, Xã Tân Quang",
      "wardCode": 1144
    },
    {
      "id": 577,
      "code": "0577",
      "name": "Bạch Thông",
      "type": "xã",
      "area": 127.84,
      "population": 8251,
      "adminCenter": "Trụ sở Đảng ủy, HĐND, UBND xã Dương Phong",
      "longitude": 105.719,
      "latitude": 22.1255,
      "beforeMerger": "Xã Đồng Thắng, Xã Dương Phong, Xã Quang Thuận",
      "wardCode": 1212
    },
    {
      "id": 578,
      "code": "0578",
      "name": "Bằng Thành",
      "type": "xã",
      "area": 208.22,
      "population": 13984,
      "adminCenter": "Trụ sở Đảng ủy, HĐND, UBND huyện Pác Nặm",
      "longitude": 105.671,
      "latitude": 22.6576,
      "beforeMerger": "Xã Bộc Bố, Xã Nhạn Môn, Xã Giáo Hiệu, Xã Bằng Thành",
      "wardCode": 1099
    },
    {
      "id": 579,
      "code": "0579",
      "name": "Bằng Vân",
      "type": "xã",
      "area": 133.01,
      "population": 5643,
      "adminCenter": "Trụ sở Đảng ủy, HĐND, UBND xã Bằng Vân",
      "longitude": 106.052,
      "latitude": 22.508,
      "beforeMerger": "Xã Thượng Ân, Xã Bằng Vân",
      "wardCode": 1112
    },
    {
      "id": 580,
      "code": "0580",
      "name": "Bình Thành",
      "type": "xã",
      "area": 72.1,
      "population": 32182,
      "adminCenter": "Trụ sở Đảng ủy, HĐND, UBND xã Bình Thành",
      "longitude": 105.571,
      "latitude": 21.7878,
      "beforeMerger": "Xã Sơn Phú, Xã Bình Thành",
      "wardCode": 1161
    },
    {
      "id": 581,
      "code": "0581",
      "name": "Bình Yên",
      "type": "xã",
      "area": 48.36,
      "population": 16106,
      "adminCenter": "Trụ sở Đảng ủy, HĐND, UBND xã Bình Yên",
      "longitude": 105.573,
      "latitude": 21.8597,
      "beforeMerger": "Xã Trung Lương, Xã Định Biên, Xã Thanh Định, Xã Bình Yên",
      "wardCode": 1142
    },
    {
      "id": 582,
      "code": "0582",
      "name": "Cẩm Giàng",
      "type": "xã",
      "area": 110.79,
      "population": 11342,
      "adminCenter": "Trụ sở Đảng ủy, HĐND, UBND xã Cẩm Giàng",
      "longitude": 105.895,
      "latitude": 22.1881,
      "beforeMerger": "Xã Quân Hà, Xã Nguyên Phúc, Xã Mỹ Thanh, Xã Cẩm Giàng",
      "wardCode": 1117
    },
    {
      "id": 583,
      "code": "0583",
      "name": "Cao Minh",
      "type": "xã",
      "area": 134.89,
      "population": 12807,
      "adminCenter": "Trụ sở Đảng ủy, HĐND, UBND xã Cổ Linh",
      "longitude": 105.645,
      "latitude": 22.5405,
      "beforeMerger": "Xã Công Bằng, Xã Cổ Linh, Xã Cao Tân",
      "wardCode": 1100
    },
    {
      "id": 584,
      "code": "0584",
      "name": "Chợ Đồn",
      "type": "xã",
      "area": 142.1,
      "population": 16252,
      "adminCenter": "Trụ sở Đảng ủy, HĐND, UBND xã Chợ Đồn",
      "longitude": 105.595,
      "latitude": 22.1731,
      "beforeMerger": "Thị trấn Bằng Lũng, Xã Ngọc Phái, Xã Phương Viên, Xã Bằng Lãng",
      "wardCode": 1118
    },
    {
      "id": 585,
      "code": "0585",
      "name": "Chợ Mới",
      "type": "xã",
      "area": 50.43,
      "population": 80832,
      "adminCenter": "Trụ sở Đảng ủy, HĐND, UBND huyện Chợ Mới",
      "longitude": 105.823,
      "latitude": 21.8769,
      "beforeMerger": "Thị trấn Đồng Tâm, Xã Quảng Chu, Xã Như Cố",
      "wardCode": 1196
    },
    {
      "id": 586,
      "code": "0586",
      "name": "Chợ Rã",
      "type": "xã",
      "area": 92.81,
      "population": 14507,
      "adminCenter": "Trụ sở Đảng ủy, HĐND, UBND huyện Ba Bể",
      "longitude": 105.726,
      "latitude": 22.4395,
      "beforeMerger": "Thị trấn Chợ Rã, Xã Thượng Giáo, Xã Địa Linh",
      "wardCode": 1102
    },
    {
      "id": 587,
      "code": "0587",
      "name": "Côn Minh",
      "type": "xã",
      "area": 146.26,
      "population": 6635,
      "adminCenter": "Trụ sở Đảng ủy, HĐND, UBND xã Quang Phong",
      "longitude": 106.025,
      "latitude": 22.1038,
      "beforeMerger": "Xã Quang Phong, Xã Dương Sơn, Xã Côn Minh",
      "wardCode": 1203
    },
    {
      "id": 588,
      "code": "0588",
      "name": "Cường Lợi",
      "type": "xã",
      "area": 117.85,
      "population": 5731,
      "adminCenter": "Trụ sở Đảng ủy, HĐND, UBND xã Cường Lợi",
      "longitude": 106.173,
      "latitude": 22.3151,
      "beforeMerger": "Xã Văn Vũ, Xã Cường Lợi",
      "wardCode": 1202
    },
    {
      "id": 589,
      "code": "0589",
      "name": "Đại Phúc",
      "type": "xã",
      "area": 107.47,
      "population": 3922,
      "adminCenter": "Trụ sở Đảng ủy, HĐND, UBND xã Phúc Xuân",
      "longitude": 105.709,
      "latitude": 21.5765,
      "beforeMerger": "Thị trấn Hùng Sơn, Xã Phúc Xuân, Xã Phúc Trìu, Xã Tân Thái, Xã Phúc Tân",
      "wardCode": 1128
    },
    {
      "id": 590,
      "code": "0590",
      "name": "Đại Từ",
      "type": "xã",
      "area": 69.42,
      "population": 27021,
      "adminCenter": "Trụ sở Đảng ủy, HĐND, UBND xã Bình Thuận",
      "longitude": 105.615,
      "latitude": 21.6069,
      "beforeMerger": "Xã Bình Thuận, Xã Khôi Kỳ, Xã Mỹ Yên, Xã Lục Ba",
      "wardCode": 1138
    },
    {
      "id": 591,
      "code": "0591",
      "name": "Dân Tiến",
      "type": "xã",
      "area": 144.28,
      "population": 1939,
      "adminCenter": "Trụ sở Đảng ủy, HĐND, UBND xã Dân Tiến",
      "longitude": 106.163,
      "latitude": 21.6767,
      "beforeMerger": "Xã Bình Long, Xã Phương Giao, Xã Dân Tiến",
      "wardCode": 1168
    },
    {
      "id": 592,
      "code": "0592",
      "name": "Điềm Thụy",
      "type": "xã",
      "area": 42.03,
      "population": 4186,
      "adminCenter": "Trụ sở Đảng ủy, HĐND, UBND xã Điềm Thụy",
      "longitude": 105.921,
      "latitude": 21.4567,
      "beforeMerger": "Xã Hà Châu, Xã Nga My, Xã Điềm Thụy, Xã Thượng Đình",
      "wardCode": 1192
    },
    {
      "id": 593,
      "code": "0593",
      "name": "Định Hóa",
      "type": "xã",
      "area": 67.3,
      "population": 22333,
      "adminCenter": "Trụ sở Đảng ủy, HĐND, UBND huyện Định Hóa hiện nay",
      "longitude": 105.6,
      "latitude": 21.9019,
      "beforeMerger": "Thị trấn Chợ Chu, Xã Phúc Chu, Xã Bảo Linh, Xã Đồng Thịnh",
      "wardCode": 1147
    },
    {
      "id": 594,
      "code": "0594",
      "name": "Đồng Hỷ",
      "type": "xã",
      "area": 53.72,
      "population": 31012,
      "adminCenter": "Trụ sở Đảng ủy, HĐND, UBND huyện Đồng Hỷ hiện nay",
      "longitude": 105.834,
      "latitude": 21.6732,
      "beforeMerger": "Thị trấn Hóa Thượng, Thị trấn Sông Cầu, Xã Minh Lập, Xã Hóa Trung",
      "wardCode": 1170
    },
    {
      "id": 595,
      "code": "0595",
      "name": "Đồng Phúc",
      "type": "xã",
      "area": 199.11,
      "population": 11722,
      "adminCenter": "Trụ sở Đảng ủy, HĐND, UBND xã Đồng Phúc",
      "longitude": 105.701,
      "latitude": 22.3125,
      "beforeMerger": "Xã Quảng Khê, Xã Hoàng Trĩ, Xã Bằng Phúc, Xã Đồng Phúc",
      "wardCode": 1109
    },
    {
      "id": 596,
      "code": "0596",
      "name": "Đức Lương",
      "type": "xã",
      "area": 60.9,
      "population": 13181,
      "adminCenter": "Trụ sở Đảng ủy, HĐND, UBND xã Đức Lương",
      "longitude": 105.61,
      "latitude": 21.7381,
      "beforeMerger": "Xã Minh Tiến, Xã Phúc Lương, Xã Đức Lương",
      "wardCode": 1141
    },
    {
      "id": 597,
      "code": "0597",
      "name": "Đức Xuân",
      "type": "phường",
      "area": 34.46,
      "population": 2266,
      "adminCenter": "Trụ sở Đảng ủy, HĐND, UBND tại Sở Tài chính Bắc Kạn cũ",
      "longitude": 105.85,
      "latitude": 22.1658,
      "beforeMerger": "Phường Nguyễn Thị Minh Khai, Phường Huyền Tụng, Phường Đức Xuân",
      "wardCode": 1195
    },
    {
      "id": 598,
      "code": "0598",
      "name": "Gia Sàng",
      "type": "phường",
      "area": 25.47,
      "population": 44094,
      "adminCenter": "Trụ sở Đảng ủy, HĐND, UBND phường Cam Giá",
      "longitude": 105.882,
      "latitude": 21.5621,
      "beforeMerger": "Phường Hương Sơn, Xã Đồng Liên, Phường Gia Sàng, Phường Cam Giá",
      "wardCode": 1127
    },
    {
      "id": 599,
      "code": "0599",
      "name": "Hiệp Lực",
      "type": "xã",
      "area": 105.02,
      "population": 7317,
      "adminCenter": "Trụ sở Đảng ủy, HĐND, UBND xã Hiệp Lực",
      "longitude": 105.968,
      "latitude": 22.3273,
      "beforeMerger": "Xã Thuần Mang, Xã Hiệp Lực",
      "wardCode": 1114
    },
    {
      "id": 600,
      "code": "0600",
      "name": "Hợp Thành",
      "type": "xã",
      "area": 41.2,
      "population": 10828,
      "adminCenter": "Trụ sở Đảng ủy, HĐND, UBND xã Phủ Lý",
      "longitude": 105.66,
      "latitude": 21.7674,
      "beforeMerger": "Xã Ôn Lương, Xã Phủ Lý, Xã Hợp Thành",
      "wardCode": 1152
    },
    {
      "id": 601,
      "code": "0601",
      "name": "Kha Sơn",
      "type": "xã",
      "area": 37.85,
      "population": 4224,
      "adminCenter": "Trụ sở Đảng ủy, HĐND, UBND xã Phú Lương",
      "longitude": 106.006,
      "latitude": 21.4277,
      "beforeMerger": "Xã Lương Phú, Xã Tân Đức, Xã Thanh Ninh, Xã Dương Thành, Xã Kha Sơn",
      "wardCode": 1193
    },
    {
      "id": 602,
      "code": "0602",
      "name": "Kim Phượng",
      "type": "xã",
      "area": 78.61,
      "population": 11104,
      "adminCenter": "Trụ sở Đảng ủy, HĐND, UBND xã Kim Phượng",
      "longitude": 105.626,
      "latitude": 21.9675,
      "beforeMerger": "Xã Quy Kỳ, Xã Kim Phượng",
      "wardCode": 1160
    },
    {
      "id": 603,
      "code": "0603",
      "name": "La Bằng",
      "type": "xã",
      "area": 60.84,
      "population": 18237,
      "adminCenter": "Trụ sở Đảng ủy, HĐND, UBND xã Hoàng Nông",
      "longitude": 105.561,
      "latitude": 21.6225,
      "beforeMerger": "Xã Hoàng Nông, Xã Tiên Hội, Xã La Bằng",
      "wardCode": 1137
    },
    {
      "id": 604,
      "code": "0604",
      "name": "La Hiên",
      "type": "xã",
      "area": 71.55,
      "population": 12269,
      "adminCenter": "Trụ sở Đảng ủy, HĐND, UBND xã La Hiên",
      "longitude": 105.948,
      "latitude": 21.7416,
      "beforeMerger": "Xã Cúc Đường, Xã La Hiên",
      "wardCode": 1166
    },
    {
      "id": 605,
      "code": "0605",
      "name": "Lam Vỹ",
      "type": "xã",
      "area": 71.42,
      "population": 8073,
      "adminCenter": "Trụ sở Đảng ủy, HĐND, UBND xã Lam Vỹ",
      "longitude": 105.692,
      "latitude": 21.9977,
      "beforeMerger": "Xã Linh Thông, Xã Lam Vỹ",
      "wardCode": 1159
    },
    {
      "id": 606,
      "code": "0606",
      "name": "Linh Sơn",
      "type": "phường",
      "area": 39.28,
      "population": 46733,
      "adminCenter": "Trụ sở Đảng ủy, HĐND, UBND phường Đồng Bẩm",
      "longitude": 105.857,
      "latitude": 21.6131,
      "beforeMerger": "Phường Chùa Hang, Phường Đồng Bẩm, Xã Cao Ngạn, Xã Huống Thượng, Xã Linh Sơn",
      "wardCode": 1133
    },
    {
      "id": 607,
      "code": "0607",
      "name": "Nà Phặc",
      "type": "xã",
      "area": 101.18,
      "population": 9231,
      "adminCenter": "Trụ sở Đảng ủy, HĐND, UBND thị trấn Nà Phặc",
      "longitude": 105.904,
      "latitude": 22.402,
      "beforeMerger": "Thị trấn Nà Phặc, Xã Trung Hòa",
      "wardCode": 1110
    },
    {
      "id": 608,
      "code": "0608",
      "name": "Na Rì",
      "type": "xã",
      "area": 112.73,
      "population": 11494,
      "adminCenter": "Trụ sở Đảng ủy, HĐND, UBND thị trấn Yến Lạc",
      "longitude": 106.179,
      "latitude": 22.2152,
      "beforeMerger": "Thị trấn Yến Lạc, Xã Sơn Thành, Xã Kim Lư",
      "wardCode": 1200
    },
    {
      "id": 609,
      "code": "0609",
      "name": "Nam Cường",
      "type": "xã",
      "area": 149.65,
      "population": 10793,
      "adminCenter": "Trụ sở Đảng ủy, HĐND, UBND xã Nam Cường",
      "longitude": 105.564,
      "latitude": 22.3437,
      "beforeMerger": "Xã Xuân Lạc, Xã Đồng Lạc, Xã Nam Cường",
      "wardCode": 1119
    },
    {
      "id": 610,
      "code": "0610",
      "name": "Nam Hòa",
      "type": "xã",
      "area": 65.02,
      "population": 16237,
      "adminCenter": "Trụ sở Đảng ủy, HĐND, UBND xã Nam Hòa",
      "longitude": 105.993,
      "latitude": 21.6498,
      "beforeMerger": "Xã Cây Thị, Xã Nam Hòa",
      "wardCode": 1156
    },
    {
      "id": 611,
      "code": "0611",
      "name": "Ngân Sơn",
      "type": "xã",
      "area": 145.57,
      "population": 826,
      "adminCenter": "Trụ sở Đảng ủy, HĐND, UBND xã Ngân Sơn",
      "longitude": 106,
      "latitude": 22.4354,
      "beforeMerger": "Thị trấn Vân Tùng, Xã Cốc Đán, Xã Đức Vân",
      "wardCode": 1113
    },
    {
      "id": 612,
      "code": "0612",
      "name": "Nghĩa Tá",
      "type": "xã",
      "area": 166.89,
      "population": 7787,
      "adminCenter": "Trụ sở Đảng ủy, HĐND, UBND xã Nghĩa Tá",
      "longitude": 105.527,
      "latitude": 22.053,
      "beforeMerger": "Xã Lương Bằng, Xã Bình Trung, Xã Nghĩa Tá",
      "wardCode": 1123
    },
    {
      "id": 613,
      "code": "0613",
      "name": "Nghiên Loan",
      "type": "xã",
      "area": 130.33,
      "population": 1104,
      "adminCenter": "Trụ sở Đảng ủy, HĐND, UBND xã Nghiên Loan",
      "longitude": 105.722,
      "latitude": 22.5527,
      "beforeMerger": "Xã Xuân La, Xã An Thắng, Xã Nghiên Loan",
      "wardCode": 1101
    },
    {
      "id": 614,
      "code": "0614",
      "name": "Nghinh Tường",
      "type": "xã",
      "area": 160.73,
      "population": 6554,
      "adminCenter": "Trụ sở Đảng ủy, HĐND, UBND xã Nghinh Tường",
      "longitude": 106.06,
      "latitude": 21.8491,
      "beforeMerger": "Xã Vũ Chấn, Xã Nghinh Tường",
      "wardCode": 1164
    },
    {
      "id": 615,
      "code": "0615",
      "name": "Phan Đình Phùng",
      "type": "phường",
      "area": 14.73,
      "population": 111482,
      "adminCenter": "Trụ sở Đảng ủy, HĐND, UBND",
      "longitude": 105.834,
      "latitude": 21.5887,
      "beforeMerger": "Phường Trưng Vương, Phường Túc Duyên, Phường Đồng Quang, Phường Quang Trung, Phường Hoàng Văn Thụ, Phường Tân Thịnh, Phường Phan Đình Phùng, Phường Gia Sàng",
      "wardCode": 1126
    },
    {
      "id": 616,
      "code": "0616",
      "name": "Phổ Yên",
      "type": "phường",
      "area": 40.7,
      "population": 49162,
      "adminCenter": "Trụ sở Đảng ủy, HĐND, UBND TP Phổ Yên",
      "longitude": 105.867,
      "latitude": 21.4265,
      "beforeMerger": "Phường Ba Hàng, Phường Hồng Tiến, Phường Bãi Bông, Xã Đắc Sơn",
      "wardCode": 1175
    },
    {
      "id": 617,
      "code": "0617",
      "name": "Phong Quang",
      "type": "xã",
      "area": 153.46,
      "population": 6144,
      "adminCenter": "Trụ sở Đảng ủy, HĐND, UBND xã Dương Quang",
      "longitude": 105.756,
      "latitude": 22.2038,
      "beforeMerger": "Xã Dương Quang, Xã Đôn Phong",
      "wardCode": 1213
    },
    {
      "id": 618,
      "code": "0618",
      "name": "Phú Bình",
      "type": "xã",
      "area": 44.18,
      "population": 44845,
      "adminCenter": "Trụ sở Đảng ủy, HĐND, UBND tại Huyện ủy Phú Bình",
      "longitude": 105.956,
      "latitude": 21.4735,
      "beforeMerger": "Thị trấn Hương Sơn, Xã Xuân Phương, Xã Úc Kỳ, Xã Nhã Lộng, Xã Bảo Lý, Xã Thượng Đình",
      "wardCode": 1188
    },
    {
      "id": 619,
      "code": "0619",
      "name": "Phú Đình",
      "type": "xã",
      "area": 47.89,
      "population": 11746,
      "adminCenter": "Trụ sở Đảng ủy, HĐND, UBND xã Phú Đình",
      "longitude": 105.528,
      "latitude": 21.8089,
      "beforeMerger": "Xã Điềm Mặc, Xã Phú Đình",
      "wardCode": 1150
    },
    {
      "id": 620,
      "code": "0620",
      "name": "Phú Lạc",
      "type": "xã",
      "area": 58.07,
      "population": 21105,
      "adminCenter": "Trụ sở Đảng ủy, HĐND, UBND xã Tân Linh",
      "longitude": 105.652,
      "latitude": 21.6838,
      "beforeMerger": "Xã Phục Linh, Xã Tân Linh, Xã Phú Lạc",
      "wardCode": 1135
    },
    {
      "id": 621,
      "code": "0621",
      "name": "Phú Lương",
      "type": "xã",
      "area": 112.39,
      "population": 43914,
      "adminCenter": "Trụ sở Đảng ủy, HĐND, UBND huyện Phú Lương hiện nay",
      "longitude": 105.726,
      "latitude": 21.744,
      "beforeMerger": "Thị trấn Đu, Thị trấn Giang Tiên, Xã Yên Lạc, Xã Động Đạt",
      "wardCode": 1158
    },
    {
      "id": 622,
      "code": "0622",
      "name": "Phú Thịnh",
      "type": "xã",
      "area": 45.37,
      "population": 21333,
      "adminCenter": "Trụ sở Đảng ủy, HĐND, UBND xã Bản Ngoại",
      "longitude": 105.553,
      "latitude": 21.708,
      "beforeMerger": "Xã Bản Ngoại, Xã Phú Cường, Xã Phú Thịnh",
      "wardCode": 1136
    },
    {
      "id": 623,
      "code": "0623",
      "name": "Phủ Thông",
      "type": "xã",
      "area": 96.94,
      "population": 1332,
      "adminCenter": "Trụ sở Đảng ủy, HĐND, UBND xã Phủ Thông",
      "longitude": 105.851,
      "latitude": 22.2673,
      "beforeMerger": "Thị trấn Phủ Thông, Xã Vi Hương, Xã Tân Tú, Xã Lục Bình",
      "wardCode": 1115
    },
    {
      "id": 624,
      "code": "0624",
      "name": "Phú Xuyên",
      "type": "xã",
      "area": 64.58,
      "population": 23053,
      "adminCenter": "Trụ sở Đảng ủy, HĐND, UBND xã Yên Lãng",
      "longitude": 105.52,
      "latitude": 21.6758,
      "beforeMerger": "Xã Yên Lãng, Xã Phú Xuyên",
      "wardCode": 1173
    },
    {
      "id": 625,
      "code": "0625",
      "name": "Phúc Lộc",
      "type": "xã",
      "area": 70.5,
      "population": 28236,
      "adminCenter": "Trụ sở Đảng ủy, HĐND, UBND xã Phúc Lộc",
      "longitude": 105.825,
      "latitude": 22.4712,
      "beforeMerger": "Xã Bành Trạch, Xã Hà Hiệu, Xã Phúc Lộc",
      "wardCode": 1103
    },
    {
      "id": 626,
      "code": "0626",
      "name": "Phúc Thuận",
      "type": "phường",
      "area": 74.16,
      "population": 29051,
      "adminCenter": "Trụ sở Đảng ủy, HĐND, UBND phường Bắc Sơn",
      "longitude": 105.765,
      "latitude": 21.4521,
      "beforeMerger": "Phường Bắc Sơn, Xã Minh Đức, Xã Phúc Thuận",
      "wardCode": 1176
    },
    {
      "id": 627,
      "code": "0627",
      "name": "Phượng Tiến",
      "type": "xã",
      "area": 102.7,
      "population": 13312,
      "adminCenter": "Trụ sở Đảng ủy, HĐND, UBND xã Tân Dương",
      "longitude": 105.709,
      "latitude": 21.9244,
      "beforeMerger": "Xã Tân Dương, Xã Tân Thịnh, Xã Phượng Tiến",
      "wardCode": 1148
    },
    {
      "id": 628,
      "code": "0628",
      "name": "Quân Chu",
      "type": "xã",
      "area": 79.38,
      "population": 13096,
      "adminCenter": "Trụ sở Đảng ủy, HĐND, UBND thị trấn Quân Chu",
      "longitude": 105.681,
      "latitude": 21.4922,
      "beforeMerger": "Thị trấn Quân Chu, Xã Cát Nê",
      "wardCode": 1134
    },
    {
      "id": 629,
      "code": "0629",
      "name": "Quan Triều",
      "type": "phường",
      "area": 24.72,
      "population": 42292,
      "adminCenter": "Trụ sở Đảng ủy, HĐND, UBND phường Tân Long",
      "longitude": 105.795,
      "latitude": 21.6301,
      "beforeMerger": "Phường Tân Long, Phường Quang Vinh, Phường Quan Triều, Xã Sơn Cẩm",
      "wardCode": 1125
    },
    {
      "id": 630,
      "code": "0630",
      "name": "Quảng Bạch",
      "type": "xã",
      "area": 75.22,
      "population": 3815,
      "adminCenter": "Trụ sở Đảng ủy, HĐND, UBND xã Quảng Bạch",
      "longitude": 105.604,
      "latitude": 22.2692,
      "beforeMerger": "Xã Tân Lập, Xã Quảng Bạch",
      "wardCode": 1120
    },
    {
      "id": 631,
      "code": "0631",
      "name": "Quang Sơn",
      "type": "xã",
      "area": 58.63,
      "population": 10837,
      "adminCenter": "Trụ sở Đảng ủy, HĐND, UBND xã Quang Sơn",
      "longitude": 105.877,
      "latitude": 21.7356,
      "beforeMerger": "Xã Tân Long, Xã Quang Sơn",
      "wardCode": 1172
    },
    {
      "id": 632,
      "code": "0632",
      "name": "Quyết Thắng",
      "type": "phường",
      "area": 24.43,
      "population": 29933,
      "adminCenter": "Trụ sở Đảng ủy, HĐND, UBND phường Thịnh Đán",
      "longitude": 105.794,
      "latitude": 21.5819,
      "beforeMerger": "Phường Thịnh Đán, Xã Phúc Hà, Xã Quyết Thắng",
      "wardCode": 1129
    },
    {
      "id": 633,
      "code": "0633",
      "name": "Sảng Mộc",
      "type": "xã",
      "area": 96.79,
      "population": 3286,
      "adminCenter": "Trụ sở Đảng ủy, HĐND, UBND xã Sảng Mộc",
      "longitude": 106.004,
      "latitude": 21.9018,
      "beforeMerger": "Không sáp nhập",
      "wardCode": 1169
    },
    {
      "id": 634,
      "code": "0634",
      "name": "Sông Công",
      "type": "phường",
      "area": 13.98,
      "population": 21039,
      "adminCenter": "Trụ sở Đảng ủy, HĐND, UBND Thành ủy Sông Công hiện nay",
      "longitude": 105.849,
      "latitude": 21.4579,
      "beforeMerger": "Phường Thắng Lợi, Phường Phố Cò, Phường Cải Đan",
      "wardCode": 1143
    },
    {
      "id": 635,
      "code": "0635",
      "name": "Tân Cương",
      "type": "xã",
      "area": 57.92,
      "population": 25525,
      "adminCenter": "Trụ sở Đảng ủy, HĐND, UBND xã Tân Cương",
      "longitude": 105.787,
      "latitude": 21.5194,
      "beforeMerger": "Xã Thịnh Đức, Xã Bình Sơn, Xã Tân Cương",
      "wardCode": 1131
    },
    {
      "id": 636,
      "code": "0636",
      "name": "Tân Khánh",
      "type": "xã",
      "area": 48.31,
      "population": 23724,
      "adminCenter": "Trụ sở Đảng ủy, HĐND, UBND xã Tân Khánh",
      "longitude": 105.941,
      "latitude": 21.5446,
      "beforeMerger": "Xã Bàn Đạt, Xã Đào Xá, Xã Tân Khánh",
      "wardCode": 1190
    },
    {
      "id": 637,
      "code": "0637",
      "name": "Tân Kỳ",
      "type": "xã",
      "area": 116.5,
      "population": 32974,
      "adminCenter": "Trụ sở Đảng ủy, HĐND, UBND xã Cao Kỳ",
      "longitude": 105.903,
      "latitude": 22.0343,
      "beforeMerger": "Xã Tân Sơn, Xã Cao Kỳ, Xã Hòa Mục",
      "wardCode": 1197
    },
    {
      "id": 638,
      "code": "0638",
      "name": "Tân Thành",
      "type": "xã",
      "area": 64.8,
      "population": 30611,
      "adminCenter": "Trụ sở Đảng ủy, HĐND, UBND xã Tân Thành",
      "longitude": 106.006,
      "latitude": 21.5058,
      "beforeMerger": "Xã Tân Hòa, Xã Tân Kim, Xã Tân Thành",
      "wardCode": 1191
    },
    {
      "id": 639,
      "code": "0639",
      "name": "Thần Sa",
      "type": "xã",
      "area": 146.08,
      "population": 601,
      "adminCenter": "Trụ sở Đảng ủy, HĐND, UBND xã Thần Sa",
      "longitude": 105.924,
      "latitude": 21.8287,
      "beforeMerger": "Xã Thượng Nung, Xã Thần Xa",
      "wardCode": 1165
    },
    {
      "id": 640,
      "code": "0640",
      "name": "Thành Công",
      "type": "xã",
      "area": 43.45,
      "population": 28281,
      "adminCenter": "Trụ sở Đảng ủy, HĐND, UBND xã Thành Công",
      "longitude": 105.787,
      "latitude": 21.3981,
      "beforeMerger": "Xã Vạn Phái, Xã Thành Công",
      "wardCode": 1186
    },
    {
      "id": 641,
      "code": "0641",
      "name": "Thanh Mai",
      "type": "xã",
      "area": 111.08,
      "population": 7406,
      "adminCenter": "Trụ sở Đảng ủy, HĐND, UBND xã Thanh Mai",
      "longitude": 105.759,
      "latitude": 22.0561,
      "beforeMerger": "Xã Thanh Vận, Xã Mai Lạp, Xã Thanh Mai",
      "wardCode": 1198
    },
    {
      "id": 642,
      "code": "0642",
      "name": "Thanh Thịnh",
      "type": "xã",
      "area": 112.31,
      "population": 8802,
      "adminCenter": "Trụ sở Đảng ủy, HĐND, UBND xã Nông Hạ",
      "longitude": 105.821,
      "latitude": 21.9635,
      "beforeMerger": "Xã Nông Hạ, Xã Thanh Thịnh",
      "wardCode": 1199
    },
    {
      "id": 643,
      "code": "0643",
      "name": "Thượng Minh",
      "type": "xã",
      "area": 131.64,
      "population": 1103,
      "adminCenter": "Trụ sở Đảng ủy, HĐND, UBND xã Chu Hương",
      "longitude": 105.812,
      "latitude": 22.3536,
      "beforeMerger": "Xã Yến Dương, Xã Chu Hương, Xã Mỹ Phương",
      "wardCode": 1105
    },
    {
      "id": 644,
      "code": "0644",
      "name": "Thượng Quan",
      "type": "xã",
      "area": 154.86,
      "population": 3753,
      "adminCenter": "Trụ sở Đảng ủy, HĐND, UBND xã Thượng Quan",
      "longitude": 106.059,
      "latitude": 22.3779,
      "beforeMerger": "Không sáp nhập",
      "wardCode": 1276
    },
    {
      "id": 645,
      "code": "0645",
      "name": "Tích Lương",
      "type": "phường",
      "area": 23.56,
      "population": 55278,
      "adminCenter": "Trụ sở Đảng ủy, HĐND, UBND phường Tích Lương",
      "longitude": 105.851,
      "latitude": 21.5432,
      "beforeMerger": "Phường Trung Thành (thành phố Thái Nguyên), Phường Phú Xá, Phường Tân Thành, Phường Tân Lập, Phường Tích Lương, Phường Cam Giá",
      "wardCode": 1130
    },
    {
      "id": 646,
      "code": "0646",
      "name": "Trại Cau",
      "type": "xã",
      "area": 82.85,
      "population": 17327,
      "adminCenter": "Trụ sở Đảng ủy, HĐND, UBND thị trấn Trại Cau",
      "longitude": 106.011,
      "latitude": 21.5889,
      "beforeMerger": "Thị trấn Trại Cau, Xã Hợp Tiến",
      "wardCode": 1171
    },
    {
      "id": 647,
      "code": "0647",
      "name": "Trần Phú",
      "type": "xã",
      "area": 145.29,
      "population": 7049,
      "adminCenter": "Trụ sở Đảng ủy, HĐND, UBND xã Cư Lễ",
      "longitude": 106.119,
      "latitude": 22.14,
      "beforeMerger": "Xã Văn Minh, Xã Cư Lễ, Xã Trần Phú",
      "wardCode": 1206
    },
    {
      "id": 648,
      "code": "0648",
      "name": "Tràng Xá",
      "type": "xã",
      "area": 119.18,
      "population": 14609,
      "adminCenter": "Trụ sở Đảng ủy, HĐND, UBND xã Tràng Xá",
      "longitude": 106.063,
      "latitude": 21.6888,
      "beforeMerger": "Xã Liên Minh, Xã Tràng Xá",
      "wardCode": 1167
    },
    {
      "id": 649,
      "code": "0649",
      "name": "Trung Hội",
      "type": "xã",
      "area": 54.21,
      "population": 13863,
      "adminCenter": "Trụ sở Đảng ủy, HĐND, UBND xã Trung Hội",
      "longitude": 105.634,
      "latitude": 21.8221,
      "beforeMerger": "Xã Phú Tiến, Xã Bộc Nhiêu, Xã Trung Hội",
      "wardCode": 1149
    },
    {
      "id": 650,
      "code": "0650",
      "name": "Trung Thành",
      "type": "phường",
      "area": 25.84,
      "population": 37075,
      "adminCenter": "Trụ sở Đảng ủy, HĐND, UBND phường Trung Thành",
      "longitude": 105.881,
      "latitude": 21.3595,
      "beforeMerger": "Phường Trung Thành (thành phố Phổ Yên), Phường Đông Cao, Phường Tân Phú, Phường Thuận Thành",
      "wardCode": 1187
    },
    {
      "id": 651,
      "code": "0651",
      "name": "Văn Hán",
      "type": "xã",
      "area": 96.26,
      "population": 19935,
      "adminCenter": "Trụ sở Đảng ủy, HĐND, UBND xã Văn Hán",
      "longitude": 105.929,
      "latitude": 21.6645,
      "beforeMerger": "Xã Khe Mo, Xã Văn Hán",
      "wardCode": 1155
    },
    {
      "id": 652,
      "code": "0652",
      "name": "Văn Lang",
      "type": "xã",
      "area": 54.06,
      "population": 17949,
      "adminCenter": "Trụ sở Đảng ủy, HĐND, UBND xã Văn Lang",
      "longitude": 106.061,
      "latitude": 22.2586,
      "beforeMerger": "Xã Kim Hỷ, Xã Lương Thượng, Xã Văn Lang",
      "wardCode": 1201
    },
    {
      "id": 653,
      "code": "0653",
      "name": "Văn Lăng",
      "type": "xã",
      "area": 75.27,
      "population": 9503,
      "adminCenter": "Trụ sở Đảng ủy, HĐND, UBND xã Văn Lăng",
      "longitude": 105.829,
      "latitude": 21.7861,
      "beforeMerger": "Xã Hòa Bình, Xã Văn Lăng",
      "wardCode": 1154
    },
    {
      "id": 654,
      "code": "0654",
      "name": "Vạn Phú",
      "type": "xã",
      "area": 51.2,
      "population": 22062,
      "adminCenter": "Trụ sở Đảng ủy, HĐND, UBND xã Vạn Phú",
      "longitude": 105.637,
      "latitude": 21.5497,
      "beforeMerger": "Xã Văn Yên, Xã Vạn Phú",
      "wardCode": 1174
    },
    {
      "id": 655,
      "code": "0655",
      "name": "Vạn Xuân",
      "type": "phường",
      "area": 40.2,
      "population": 6161,
      "adminCenter": "Trụ sở Đảng ủy, HĐND, UBND phường Nam Tiến",
      "longitude": 105.897,
      "latitude": 21.4111,
      "beforeMerger": "Phường Nam Tiến, Phường Đồng Tiến, Phường Tân Hương, Phường Tiên Phong",
      "wardCode": 1184
    },
    {
      "id": 656,
      "code": "0656",
      "name": "Vĩnh Thông",
      "type": "xã",
      "area": 129.55,
      "population": 4631,
      "adminCenter": "Trụ sở Đảng ủy, HĐND, UBND xã Vũ Muộn",
      "longitude": 105.981,
      "latitude": 22.2099,
      "beforeMerger": "Xã Sỹ Bình, Xã Vũ Muộn, Xã Cao Sơn",
      "wardCode": 1211
    },
    {
      "id": 657,
      "code": "0657",
      "name": "Võ Nhai",
      "type": "xã",
      "area": 99.78,
      "population": 17509,
      "adminCenter": "Trụ sở Đảng ủy, HĐND, UBND huyện Võ Nhai hiện nay",
      "longitude": 106.112,
      "latitude": 21.758,
      "beforeMerger": "Thị trấn Đình Cả, Xã Phú Thượng, Xã Lâu Thượng",
      "wardCode": 1163
    },
    {
      "id": 658,
      "code": "0658",
      "name": "Vô Tranh",
      "type": "xã",
      "area": 83.53,
      "population": 38253,
      "adminCenter": "Trụ sở Đảng ủy, HĐND, UBND xã Tức Tranh",
      "longitude": 105.772,
      "latitude": 21.7044,
      "beforeMerger": "Xã Tức Tranh, Xã Cổ Lũng, Xã Phú Đô, Xã Vô Tranh",
      "wardCode": 1153
    },
    {
      "id": 659,
      "code": "0659",
      "name": "Xuân Dương",
      "type": "xã",
      "area": 206.7,
      "population": 6621,
      "adminCenter": "Trụ sở Đảng ủy, HĐND, UBND xã Xuân Dương",
      "longitude": 106.021,
      "latitude": 22.0097,
      "beforeMerger": "Xã Đổng Xá, Xã Liêm Thủy, Xã Xuân Dương",
      "wardCode": 1210
    },
    {
      "id": 660,
      "code": "0660",
      "name": "Yên Bình",
      "type": "xã",
      "area": 119.22,
      "population": 14813,
      "adminCenter": "Trụ sở Đảng ủy, HĐND, UBND xã Yên Hân",
      "longitude": 105.936,
      "latitude": 21.9433,
      "beforeMerger": "Xã Yên Cư, Xã Bình Văn, Xã Yên Hân",
      "wardCode": 1124
    },
    {
      "id": 661,
      "code": "0661",
      "name": "Yên Phong",
      "type": "xã",
      "area": 115.98,
      "population": 7379,
      "adminCenter": "Trụ sở Đảng ủy, HĐND, UBND xã Yên Phong",
      "longitude": 105.63,
      "latitude": 22.0727,
      "beforeMerger": "Xã Đại Sảo, Xã Yên Mỹ, Xã Yên Phong",
      "wardCode": 1122
    },
    {
      "id": 662,
      "code": "0662",
      "name": "Yên Thịnh",
      "type": "xã",
      "area": 165.8,
      "population": 5476,
      "adminCenter": "Trụ sở Đảng ủy, HĐND, UBND xã Yên Thịnh",
      "longitude": 105.502,
      "latitude": 22.2174,
      "beforeMerger": "Xã Bản Thi, Xã Yên Thượng, Xã Yên Thịnh",
      "wardCode": 1121
    },
    {
      "id": 663,
      "code": "0663",
      "name": "Yên Trạch",
      "type": "xã",
      "area": 112.68,
      "population": 23543,
      "adminCenter": "Trụ sở Đảng ủy, HĐND, UBND xã Yên Đổ",
      "longitude": 105.719,
      "latitude": 21.8467,
      "beforeMerger": "Xã Yên Ninh, Xã Yên Đổ, Xã Yên Trạch",
      "wardCode": 1151
    }
  ]
}