{
  "provinceId": 14,
  "provinceName": "tỉnh Hưng Yên",
  "mahc": 5,
  "wards": [
    {
      "id": 457,
      "code": "0457",
      "name": "Bản Bo",
      "type": "xã",
      "area": 100.82,
      "population": 9496,
      "adminCenter": "Trụ sở UBND xã Bản Bo, Bản Hưng Phong, xã Bản Bo",
      "longitude": 103.697,
      "latitude": 22.2846,
      "beforeMerger": "Xã Nà Tăm, Xã Bản Bo",
      "wardCode": 2085
    },
    {
      "id": 458,
      "code": "0458",
      "name": "Bình Lư",
      "type": "xã",
      "area": 173.91,
      "population": 18606,
      "adminCenter": "Số 170 Đường Võ Nguyên Giáp, xã Bình Lư",
      "longitude": 103.678,
      "latitude": 22.3532,
      "beforeMerger": "Thị trấn Tam Đường, Xã Sơn Bình, Xã Bình Lư",
      "wardCode": 2083
    },
    {
      "id": 459,
      "code": "0459",
      "name": "Bum Nưa",
      "type": "xã",
      "area": 315.13,
      "population": 7147,
      "adminCenter": "Bản Nà Hẻ, xã Bum Nưa",
      "longitude": 102.85,
      "latitude": 22.4925,
      "beforeMerger": "Xã Pa Vệ Sủ, Xã Bum Nưa",
      "wardCode": 2093
    },
    {
      "id": 460,
      "code": "0460",
      "name": "Bum Tở",
      "type": "xã",
      "area": 384.07,
      "population": 11711,
      "adminCenter": "Khu 8, xã Bum Tở",
      "longitude": 102.791,
      "latitude": 22.3407,
      "beforeMerger": "Thị trấn Mường Tè, Xã Can Hồ, Xã Bum Tở",
      "wardCode": 2090
    },
    {
      "id": 461,
      "code": "0461",
      "name": "Dào San",
      "type": "xã",
      "area": 137.29,
      "population": 16123,
      "adminCenter": "Bản Hợp 2, xã Dào San",
      "longitude": 103.361,
      "latitude": 22.6637,
      "beforeMerger": "Xã Tung Qua Lìn, Xã Mù Sang, Xã Dào San",
      "wardCode": 2107
    },
    {
      "id": 462,
      "code": "0462",
      "name": "Đoàn Kết",
      "type": "phường",
      "area": 134.31,
      "population": 25403,
      "adminCenter": "Số 68, Đường Võ Giáp, Phường Đoàn Kết",
      "longitude": 103.397,
      "latitude": 22.4412,
      "beforeMerger": "Phường Đoàn Kết, Phường Quyết Tiến, Phường Quyết Thắng, Xã Lản Nhì Thàng, Xã Sùng Phài",
      "wardCode": 2081
    },
    {
      "id": 463,
      "code": "0463",
      "name": "Hồng Thu",
      "type": "xã",
      "area": 178,
      "population": 13368,
      "adminCenter": "Bản Nậm Mạ Thái, xã Hồng Thu",
      "longitude": 103.322,
      "latitude": 22.4203,
      "beforeMerger": "Xã Phìn Hồ, Xã Ma Quai, Xã Hồng Thu",
      "wardCode": 2099
    },
    {
      "id": 464,
      "code": "0464",
      "name": "Hua Bum",
      "type": "xã",
      "area": 355.72,
      "population": 5697,
      "adminCenter": "Bản Chang Chảo Pá, xã Hua Bum",
      "longitude": 102.98,
      "latitude": 22.3565,
      "beforeMerger": "Xã Vàng San, Xã Hua Bum",
      "wardCode": 2091
    },
    {
      "id": 465,
      "code": "0465",
      "name": "Khoen On",
      "type": "xã",
      "area": 189.78,
      "population": 10677,
      "adminCenter": "Bản Củng, xã Khoen On",
      "longitude": 103.854,
      "latitude": 21.7686,
      "beforeMerger": "Xã Ta Gia, Xã Khoen On",
      "wardCode": 2117
    },
    {
      "id": 466,
      "code": "0466",
      "name": "Khổng Lào",
      "type": "xã",
      "area": 188.12,
      "population": 16924,
      "adminCenter": "Bản Khổng Lào, xã Khổng Lào",
      "longitude": 103.372,
      "latitude": 22.5935,
      "beforeMerger": "Xã Hoang Thèn, Xã Bản Lang, Xã Khổng Lào",
      "wardCode": 2108
    },
    {
      "id": 467,
      "code": "0467",
      "name": "Khun Há",
      "type": "xã",
      "area": 149.35,
      "population": 9148,
      "adminCenter": "Trụ sở xã Khun Há, bản Nậm Đích, xã Khun Há",
      "longitude": 103.583,
      "latitude": 22.2581,
      "beforeMerger": "Xã Bản Hon, Xã Khun Há",
      "wardCode": 2084
    },
    {
      "id": 468,
      "code": "0468",
      "name": "Lê Lợi",
      "type": "xã",
      "area": 288.36,
      "population": 911,
      "adminCenter": "Bản Chiềng Chăn 3, xã Lê Lợi",
      "longitude": 103.154,
      "latitude": 22.1699,
      "beforeMerger": "Xã Nậm Pì, Xã Pú Đao, Xã Chăn Nưa, Xã Lê Lợi",
      "wardCode": 2097
    },
    {
      "id": 469,
      "code": "0469",
      "name": "Mù Cả",
      "type": "xã",
      "area": 384.04,
      "population": 3299,
      "adminCenter": "Bản Mù Cả, xã Mù Cả",
      "longitude": 102.459,
      "latitude": 22.4844,
      "beforeMerger": "Không sáp nhập",
      "wardCode": 2089
    },
    {
      "id": 470,
      "code": "0470",
      "name": "Mường Khoa",
      "type": "xã",
      "area": 168.83,
      "population": 12529,
      "adminCenter": "Bản Phiêng Tâm, xã Mường Khoa",
      "longitude": 103.654,
      "latitude": 22.1773,
      "beforeMerger": "Xã Phúc Khoa, Xã Mường Khoa",
      "wardCode": 2112
    },
    {
      "id": 471,
      "code": "0471",
      "name": "Mường Kim",
      "type": "xã",
      "area": 316.32,
      "population": 20385,
      "adminCenter": "Bản Nà Đình, xã Mường Kim",
      "longitude": 103.798,
      "latitude": 21.8809,
      "beforeMerger": "Xã Tà Mung, Xã Tà Hừa, Xã Pha Mu, Xã Mường Kim",
      "wardCode": 2116
    },
    {
      "id": 472,
      "code": "0472",
      "name": "Mường Mô",
      "type": "xã",
      "area": 395.16,
      "population": 7335,
      "adminCenter": "Bản Mường Mô, xã Mường Mô",
      "longitude": 102.868,
      "latitude": 22.1502,
      "beforeMerger": "Xã Nậm Chà, Xã Mường Mô",
      "wardCode": 2094
    },
    {
      "id": 473,
      "code": "0473",
      "name": "Mường Tè",
      "type": "xã",
      "area": 292,
      "population": 6364,
      "adminCenter": "Bản Bó, xã Mường Tè",
      "longitude": 102.63,
      "latitude": 22.482,
      "beforeMerger": "Xã Nậm Khao, Xã Mường Tè",
      "wardCode": 2088
    },
    {
      "id": 474,
      "code": "0474",
      "name": "Mường Than",
      "type": "xã",
      "area": 154.08,
      "population": 13925,
      "adminCenter": "Bản Nậm Ngùa, xã Mường Than",
      "longitude": 103.861,
      "latitude": 22.0198,
      "beforeMerger": "Xã Phúc Than, Xã Mường Mít",
      "wardCode": 2115
    },
    {
      "id": 475,
      "code": "0475",
      "name": "Nậm Cuổi",
      "type": "xã",
      "area": 177.16,
      "population": 10799,
      "adminCenter": "Bản Tân Lập, xã Nậm Cuổi",
      "longitude": 103.503,
      "latitude": 22.0735,
      "beforeMerger": "Xã Nậm Hăn, Xã Nậm Cuổi",
      "wardCode": 2104
    },
    {
      "id": 476,
      "code": "0476",
      "name": "Nậm Hàng",
      "type": "xã",
      "area": 335.92,
      "population": 11218,
      "adminCenter": "TDP Pá Kéo, xã Nậm Hàng",
      "longitude": 103.019,
      "latitude": 22.145,
      "beforeMerger": "Thị trấn Nậm Nhùn, Xã Nậm Manh, Xã Nậm Hàng",
      "wardCode": 2095
    },
    {
      "id": 477,
      "code": "0477",
      "name": "Nậm Mạ",
      "type": "xã",
      "area": 112.73,
      "population": 6504,
      "adminCenter": "Bản Căn Co, xã Nậm Mạ",
      "longitude": 103.425,
      "latitude": 22.1516,
      "beforeMerger": "Xã Căn Co, Xã Nậm Mạ",
      "wardCode": 2102
    },
    {
      "id": 478,
      "code": "0478",
      "name": "Nậm Sỏ",
      "type": "xã",
      "area": 263.35,
      "population": 0,
      "adminCenter": "Bản Nà Ngò, xã Nậm Sỏ",
      "longitude": 103.596,
      "latitude": 22.085,
      "beforeMerger": "Xã Tà Mít, Xã Nậm Sỏ",
      "wardCode": 2113
    },
    {
      "id": 479,
      "code": "0479",
      "name": "Nậm Tăm",
      "type": "xã",
      "area": 242.28,
      "population": 12753,
      "adminCenter": "Bản Nà Tăm 1, xã Nậm Tăm",
      "longitude": 103.382,
      "latitude": 22.2929,
      "beforeMerger": "Xã Lùng Thàng, Xã Nậm Cha, Xã Nậm Tăm",
      "wardCode": 2100
    },
    {
      "id": 480,
      "code": "0480",
      "name": "Pa Tần",
      "type": "xã",
      "area": 316.53,
      "population": 9039,
      "adminCenter": "Bản Pa Tần 3, xã Pa Tần",
      "longitude": 103.123,
      "latitude": 22.415,
      "beforeMerger": "Xã Nậm Ban, Xã Trung Chải, Xã Pa Tần",
      "wardCode": 2098
    },
    {
      "id": 481,
      "code": "0481",
      "name": "Pa Ủ",
      "type": "xã",
      "area": 444.58,
      "population": 6084,
      "adminCenter": "Bản Tham Pa, xã Pa Ủ",
      "longitude": 102.649,
      "latitude": 22.6252,
      "beforeMerger": "Xã Tá Bạ, Xã Pa Ủ",
      "wardCode": 2087
    },
    {
      "id": 482,
      "code": "0482",
      "name": "Pắc Ta",
      "type": "xã",
      "area": 168.58,
      "population": 10704,
      "adminCenter": "Trụ sở UBND xã - bản Pắc Ta, xã Pắc Ta",
      "longitude": 103.859,
      "latitude": 22.0992,
      "beforeMerger": "Xã Hố Mít, Xã Pắc Ta",
      "wardCode": 2114
    },
    {
      "id": 483,
      "code": "0483",
      "name": "Phong Thổ",
      "type": "xã",
      "area": 266.71,
      "population": 23295,
      "adminCenter": "Đường Võ Nguyên Giáp, TDP Hữu Nghị, xã Phong Thổ",
      "longitude": 103.269,
      "latitude": 22.5296,
      "beforeMerger": "Thị trấn Phong Thổ, Xã Huổi Luông, Xã Ma Li Pho, Xã Mường So",
      "wardCode": 2105
    },
    {
      "id": 484,
      "code": "0484",
      "name": "Pu Sam Cáp",
      "type": "xã",
      "area": 152.23,
      "population": 11611,
      "adminCenter": "Bản Noong Hẻo 2, xã Pu Sam Cáp",
      "longitude": 103.493,
      "latitude": 22.2263,
      "beforeMerger": "Xã Pa Khóa, Xã Noong Hẻo, Xã Pu Sam Cáp",
      "wardCode": 2101
    },
    {
      "id": 485,
      "code": "0485",
      "name": "Sì Lở Lầu",
      "type": "xã",
      "area": 147.8,
      "population": 16196,
      "adminCenter": "Bản Mồ Sì San, xã Sì Lở Lầu",
      "longitude": 103.36,
      "latitude": 22.7547,
      "beforeMerger": "Xã Vàng Ma Chải, Xã Mồ Sì San, Xã Pa Vây Sử, Xã Sì Lở Lầu",
      "wardCode": 2106
    },
    {
      "id": 486,
      "code": "0486",
      "name": "Sìn Hồ",
      "type": "xã",
      "area": 159.68,
      "population": 14012,
      "adminCenter": "Khu 3, xã Sìn Hồ",
      "longitude": 103.226,
      "latitude": 22.3263,
      "beforeMerger": "Thị trấn Sìn Hồ, Xã Sà Dề Phìn, Xã Phăng Sô Lin, Xã Tả Phìn",
      "wardCode": 2096
    },
    {
      "id": 487,
      "code": "0487",
      "name": "Sin Suối Hồ",
      "type": "xã",
      "area": 255.91,
      "population": 16338,
      "adminCenter": "Bản Đông Phong, xã Sin Suối Hồ",
      "longitude": 103.492,
      "latitude": 22.5207,
      "beforeMerger": "Xã Nậm Xe, Xã Thèn Sin, Xã Sin Suối Hồ",
      "wardCode": 2109
    },
    {
      "id": 488,
      "code": "0488",
      "name": "Tả Lèng",
      "type": "xã",
      "area": 128.36,
      "population": 12628,
      "adminCenter": "Bản Giang Ma, xã Tả Lèng",
      "longitude": 103.558,
      "latitude": 22.4009,
      "beforeMerger": "Xã Giang Ma, Xã Hồ Thầu, Xã Tả Lèng",
      "wardCode": 2082
    },
    {
      "id": 489,
      "code": "0489",
      "name": "Tà Tổng",
      "type": "xã",
      "area": 512.01,
      "population": 7967,
      "adminCenter": "Bản Tà Tổng, xã Tà Tổng",
      "longitude": 102.604,
      "latitude": 22.3233,
      "beforeMerger": "Không sáp nhập",
      "wardCode": 2092
    },
    {
      "id": 490,
      "code": "0490",
      "name": "Tân Phong",
      "type": "phường",
      "area": 106.77,
      "population": 36456,
      "adminCenter": "Phố Trần Đại nghĩa, Tổ 26, Phường Tân Phong, tỉnh Lai Châu",
      "longitude": 103.485,
      "latitude": 22.3534,
      "beforeMerger": "Phường Tân Phong, Phường Đông Phong, Xã San Thàng, Xã Nùng Nàng, Xã Bản Giang",
      "wardCode": 2080
    },
    {
      "id": 491,
      "code": "0491",
      "name": "Tân Uyên",
      "type": "xã",
      "area": 296.25,
      "population": 30415,
      "adminCenter": "TDP số 26, xã Tân Uyên",
      "longitude": 103.751,
      "latitude": 22.1433,
      "beforeMerger": "Thị trấn Tân Uyên, Xã Trung Đồng, Xã Thân Thuộc, Xã Nậm Cần",
      "wardCode": 2111
    },
    {
      "id": 492,
      "code": "0492",
      "name": "Than Uyên",
      "type": "xã",
      "area": 132.09,
      "population": 27283,
      "adminCenter": "Khu 2, xã Than Uyên",
      "longitude": 103.884,
      "latitude": 21.957,
      "beforeMerger": "Thị trấn Than Uyên, Xã Mường Than, Xã Hua Nà, Xã Mường Cang",
      "wardCode": 2110
    },
    {
      "id": 493,
      "code": "0493",
      "name": "Thu Lũm",
      "type": "xã",
      "area": 251.55,
      "population": 5255,
      "adminCenter": "Bản Mé Gióng, xã Thu Lũm",
      "longitude": 102.448,
      "latitude": 22.6474,
      "beforeMerger": "Xã Ka Lăng, Xã Thu Lũm",
      "wardCode": 2086
    },
    {
      "id": 494,
      "code": "0494",
      "name": "Tủa Sín Chải",
      "type": "xã",
      "area": 292.88,
      "population": 16199,
      "adminCenter": "Bản Nhiều Sáng, xã Tủa Sín Chải",
      "longitude": 103.273,
      "latitude": 22.2005,
      "beforeMerger": "Xã Làng Mô, Xã Tả Ngảo, Xã Tủa Sín Chải",
      "wardCode": 2103
    }
  ]
}