{
  "provinceId": 27,
  "provinceName": "tỉnh Tây Ninh",
  "mahc": 27,
  "wards": [
    {
      "id": 2495,
      "code": "2495",
      "name": "An Lục Long",
      "type": "xã",
      "area": 33.75,
      "population": 29485,
      "adminCenter": "đang cập nhật",
      "longitude": 106.462,
      "latitude": 10.4188,
      "beforeMerger": "Xã Dương Xuân Hội, Xã Long Trì, Xã An Lục Long",
      "wardCode": 1358
    },
    {
      "id": 2496,
      "code": "2496",
      "name": "An Ninh",
      "type": "xã",
      "area": 68.81,
      "population": 40,
      "adminCenter": "đang cập nhật",
      "longitude": 106.313,
      "latitude": 10.9815,
      "beforeMerger": "Xã Lộc Giang, Xã An Ninh Đông, Xã An Ninh Tây",
      "wardCode": 1353
    },
    {
      "id": 2497,
      "code": "2497",
      "name": "An Tịnh",
      "type": "phường",
      "area": 78.44,
      "population": 61212,
      "adminCenter": "đang cập nhật",
      "longitude": 106.407,
      "latitude": 11.0572,
      "beforeMerger": "Phường Lộc Hưng, Phường An Tịnh",
      "wardCode": 2747
    },
    {
      "id": 2498,
      "code": "2498",
      "name": "Bến Cầu",
      "type": "xã",
      "area": 112.02,
      "population": 49228,
      "adminCenter": "đang cập nhật",
      "longitude": 106.195,
      "latitude": 11.1097,
      "beforeMerger": "Thị trấn Bến Cầu, Xã An Thạnh (huyện Bến Cầu), Xã Tiên Thuận, Xã Lợi Thuận",
      "wardCode": 2749
    },
    {
      "id": 2499,
      "code": "2499",
      "name": "Bến Lức",
      "type": "xã",
      "area": 48.75,
      "population": 569,
      "adminCenter": "đang cập nhật",
      "longitude": 106.483,
      "latitude": 10.6618,
      "beforeMerger": "Xã An Thạnh (huyện Bến Lức), Xã Thanh Phú, Thị trấn Bến Lức",
      "wardCode": 1363
    },
    {
      "id": 2500,
      "code": "2500",
      "name": "Bình Đức",
      "type": "xã",
      "area": 51.2,
      "population": 3511,
      "adminCenter": "đang cập nhật",
      "longitude": 106.456,
      "latitude": 10.622,
      "beforeMerger": "Xã Thạnh Đức (huyện Bến Lức), Xã Nhựt Chánh, Xã Bình Đức",
      "wardCode": 1325
    },
    {
      "id": 2501,
      "code": "2501",
      "name": "Bình Hiệp",
      "type": "xã",
      "area": 123.68,
      "population": 2142,
      "adminCenter": "đang cập nhật",
      "longitude": 105.958,
      "latitude": 10.8318,
      "beforeMerger": "Xã Thạnh Trị, Xã Bình Tân, Xã Bình Hòa Tây, Xã Bình Hiệp",
      "wardCode": 1302
    },
    {
      "id": 2502,
      "code": "2502",
      "name": "Bình Hòa",
      "type": "xã",
      "area": 48.63,
      "population": 56484,
      "adminCenter": "đang cập nhật",
      "longitude": 106.029,
      "latitude": 10.776,
      "beforeMerger": "Xã Bình Thạnh (huyện Mộc Hóa), Xã Bình Hòa Đông, Xã Bình Hòa Trung",
      "wardCode": 1304
    },
    {
      "id": 2503,
      "code": "2503",
      "name": "Bình Minh",
      "type": "phường",
      "area": 23.86,
      "population": 34193,
      "adminCenter": "đang cập nhật",
      "longitude": 106.128,
      "latitude": 11.3841,
      "beforeMerger": "Phường Ninh Sơn, Xã Tân Bình (thành phố Tây Ninh), Xã Bình Minh, Xã Thạnh Tân, Xã Suối Đá, Xã Phan",
      "wardCode": 2768
    },
    {
      "id": 2504,
      "code": "2504",
      "name": "Bình Thành",
      "type": "xã",
      "area": 72.1,
      "population": 32182,
      "adminCenter": "đang cập nhật",
      "longitude": 106.186,
      "latitude": 10.7554,
      "beforeMerger": "Xã Tân Hiệp (huyện Thạnh Hóa), Xã Thuận Bình, Xã Bình Hòa Hưng",
      "wardCode": 1345
    },
    {
      "id": 2505,
      "code": "2505",
      "name": "Cần Đước",
      "type": "xã",
      "area": 48.56,
      "population": 50473,
      "adminCenter": "đang cập nhật",
      "longitude": 106.593,
      "latitude": 10.4898,
      "beforeMerger": "Thị trấn Cần Đước, Xã Phước Tuy, Xã Tân Ân, Xã Tân Chánh",
      "wardCode": 1308
    },
    {
      "id": 2506,
      "code": "2506",
      "name": "Cần Giuộc",
      "type": "xã",
      "area": 60.4,
      "population": 77704,
      "adminCenter": "đang cập nhật",
      "longitude": 106.689,
      "latitude": 10.6154,
      "beforeMerger": "Thị trấn Cần Giuộc, Xã Phước Lại, Xã Long Hậu",
      "wardCode": 1339
    },
    {
      "id": 2507,
      "code": "2507",
      "name": "Cầu Khởi",
      "type": "xã",
      "area": 90.51,
      "population": 25431,
      "adminCenter": "đang cập nhật",
      "longitude": 106.241,
      "latitude": 11.3067,
      "beforeMerger": "Xã Phước Ninh, Xã Cầu Khởi, Xã Chà Là",
      "wardCode": 2760
    },
    {
      "id": 2508,
      "code": "2508",
      "name": "Châu Thành",
      "type": "xã",
      "area": 47.71,
      "population": 39104,
      "adminCenter": "đang cập nhật",
      "longitude": 106.048,
      "latitude": 11.3359,
      "beforeMerger": "Thị trấn Châu Thành, Xã Đồng Khởi, Xã An Bình, Xã Thái Bình",
      "wardCode": 2764
    },
    {
      "id": 2509,
      "code": "2509",
      "name": "Đông Thành",
      "type": "xã",
      "area": 130.94,
      "population": 27169,
      "adminCenter": "đang cập nhật",
      "longitude": 106.246,
      "latitude": 10.8706,
      "beforeMerger": "Thị trấn Đông Thành, Xã Mỹ Thạnh Tây, Xã Mỹ Thạnh Đông, Xã Mỹ Bình",
      "wardCode": 1348
    },
    {
      "id": 2510,
      "code": "2510",
      "name": "Đức Hòa",
      "type": "xã",
      "area": 63.31,
      "population": 49864,
      "adminCenter": "đang cập nhật",
      "longitude": 106.45,
      "latitude": 10.7967,
      "beforeMerger": "Thị trấn Đức Hòa, Xã Hựu Thạnh, Xã Đức Hòa Hạ",
      "wardCode": 1352
    },
    {
      "id": 2511,
      "code": "2511",
      "name": "Đức Huệ",
      "type": "xã",
      "area": 134.13,
      "population": 2293,
      "adminCenter": "đang cập nhật",
      "longitude": 106.313,
      "latitude": 10.8072,
      "beforeMerger": "Xã Bình Hòa Bắc, Xã Bình Hòa Nam, Xã Bình Thành",
      "wardCode": 1350
    },
    {
      "id": 2512,
      "code": "2512",
      "name": "Đức Lập",
      "type": "xã",
      "area": 59.41,
      "population": 31722,
      "adminCenter": "đang cập nhật",
      "longitude": 106.469,
      "latitude": 10.9,
      "beforeMerger": "Xã Đức Lập Hạ, Xã Mỹ Hạnh Bắc, Xã Đức Hòa Thượng",
      "wardCode": 1360
    },
    {
      "id": 2513,
      "code": "2513",
      "name": "Dương Minh Châu",
      "type": "xã",
      "area": 177.15,
      "population": 35878,
      "adminCenter": "đang cập nhật",
      "longitude": 106.262,
      "latitude": 11.4016,
      "beforeMerger": "Thị trấn Dương Minh Châu, Xã Phan, Xã Suối Đá, Xã Phước Minh",
      "wardCode": 2769
    },
    {
      "id": 2514,
      "code": "2514",
      "name": "Gia Lộc",
      "type": "phường",
      "area": 50.26,
      "population": 37354,
      "adminCenter": "đang cập nhật",
      "longitude": 106.341,
      "latitude": 11.0977,
      "beforeMerger": "Xã Phước Đông (huyện Gò Dầu), Phường Gia Lộc",
      "wardCode": 2750
    },
    {
      "id": 2515,
      "code": "2515",
      "name": "Gò Dầu",
      "type": "phường",
      "area": 43.09,
      "population": 6634,
      "adminCenter": "đang cập nhật",
      "longitude": 106.298,
      "latitude": 11.0751,
      "beforeMerger": "Phường Gia Bình, Thị trấn Gò Dầu, Xã Thanh Phước",
      "wardCode": 2748
    },
    {
      "id": 2516,
      "code": "2516",
      "name": "Hảo Đước",
      "type": "xã",
      "area": 93.75,
      "population": 32503,
      "adminCenter": "đang cập nhật",
      "longitude": 105.993,
      "latitude": 11.3693,
      "beforeMerger": "Xã An Cơ, Xã Trí Bình, Xã Hảo Đước",
      "wardCode": 2767
    },
    {
      "id": 2517,
      "code": "2517",
      "name": "Hậu Nghĩa",
      "type": "xã",
      "area": 66.48,
      "population": 46745,
      "adminCenter": "đang cập nhật",
      "longitude": 106.399,
      "latitude": 10.9372,
      "beforeMerger": "Thị trấn Hậu Nghĩa, Xã Đức Lập Thượng, Xã Tân Mỹ",
      "wardCode": 1351
    },
    {
      "id": 2518,
      "code": "2518",
      "name": "Hậu Thạnh",
      "type": "xã",
      "area": 93.82,
      "population": 19336,
      "adminCenter": "đang cập nhật",
      "longitude": 105.868,
      "latitude": 10.6586,
      "beforeMerger": "Xã Hậu Thạnh Đông, Xã Hậu Thạnh Tây, Xã Bắc Hòa",
      "wardCode": 1343
    },
    {
      "id": 2519,
      "code": "2519",
      "name": "Hiệp Hòa",
      "type": "xã",
      "area": 54.9936,
      "population": 0,
      "adminCenter": "đang cập nhật",
      "longitude": 106.345,
      "latitude": 10.9133,
      "beforeMerger": "Xã Tân Phú (huyện Đức Hòa), Xã Hiệp Hòa, Thị trấn Hiệp Hòa",
      "wardCode": 1354
    },
    {
      "id": 2520,
      "code": "2520",
      "name": "Hòa Hội",
      "type": "xã",
      "area": 136.27,
      "population": 36174,
      "adminCenter": "đang cập nhật",
      "longitude": 105.923,
      "latitude": 11.3252,
      "beforeMerger": "Xã Biên Giới, Xã Hòa Thạnh, Xã Hòa Hội",
      "wardCode": 2765
    },
    {
      "id": 2521,
      "code": "2521",
      "name": "Hòa Khánh",
      "type": "xã",
      "area": 59.9321,
      "population": 0,
      "adminCenter": "đang cập nhật",
      "longitude": 106.393,
      "latitude": 10.85,
      "beforeMerger": "Xã Hòa Khánh Tây, Xã Hòa Khánh Nam, Xã Hòa Khánh Đông",
      "wardCode": 1361
    },
    {
      "id": 2522,
      "code": "2522",
      "name": "Hòa Thành",
      "type": "phường",
      "area": 97.29,
      "population": 47167,
      "adminCenter": "đang cập nhật",
      "longitude": 106.113,
      "latitude": 11.2635,
      "beforeMerger": "Phường Long Thành Trung, Xã Long Thành Nam",
      "wardCode": 2755
    },
    {
      "id": 2523,
      "code": "2523",
      "name": "Hưng Điền",
      "type": "xã",
      "area": 131.16,
      "population": 19308,
      "adminCenter": "đang cập nhật",
      "longitude": 105.604,
      "latitude": 10.9302,
      "beforeMerger": "Xã Hưng Hà, Xã Hưng Điền B, Xã Hưng Điền",
      "wardCode": 1295
    },
    {
      "id": 2524,
      "code": "2524",
      "name": "Hưng Thuận",
      "type": "xã",
      "area": 102.72,
      "population": 26546,
      "adminCenter": "đang cập nhật",
      "longitude": 106.387,
      "latitude": 11.1551,
      "beforeMerger": "Xã Đôn Thuận, Xã Hưng Thuận",
      "wardCode": 2754
    },
    {
      "id": 2525,
      "code": "2525",
      "name": "Khánh Hậu",
      "type": "phường",
      "area": 22.81,
      "population": 28965,
      "adminCenter": "đang cập nhật",
      "longitude": 106.36,
      "latitude": 10.5377,
      "beforeMerger": "Phường Tân Khánh, Phường Khánh Hậu, Xã Lợi Bình Nhơn",
      "wardCode": 1293
    },
    {
      "id": 2526,
      "code": "2526",
      "name": "Khánh Hưng",
      "type": "xã",
      "area": 129.6,
      "population": 41212,
      "adminCenter": "đang cập nhật",
      "longitude": 105.73,
      "latitude": 10.9896,
      "beforeMerger": "Xã Hưng Điền A, Xã Thái Bình Trung, Xã Vĩnh Trị, Xã Thái Trị, Xã Khánh Hưng",
      "wardCode": 1299
    },
    {
      "id": 2527,
      "code": "2527",
      "name": "Kiến Tường",
      "type": "phường",
      "area": 26.28,
      "population": 23738,
      "adminCenter": "đang cập nhật",
      "longitude": 105.939,
      "latitude": 10.7559,
      "beforeMerger": "Phường 1, Phường 2, Phường 3 (thị xã Kiến Tường)",
      "wardCode": 1301
    },
    {
      "id": 2528,
      "code": "2528",
      "name": "Lộc Ninh",
      "type": "xã",
      "area": 67.4,
      "population": 32213,
      "adminCenter": "đang cập nhật",
      "longitude": 106.319,
      "latitude": 11.2917,
      "beforeMerger": "Xã Bến Củi, Xã Lộc Ninh, Xã Phước Minh",
      "wardCode": 2759
    },
    {
      "id": 2529,
      "code": "2529",
      "name": "Long An",
      "type": "phường",
      "area": 34.9,
      "population": 106667,
      "adminCenter": "đang cập nhật",
      "longitude": 106.405,
      "latitude": 10.5476,
      "beforeMerger": "Phường 1 (thành phố Tân An), Phường 3 (thành phố Tân An), Phường 4, Phường 5, Phường 6, Xã Hướng Thọ Phú, Xã Bình Thạnh (huyện Thủ Thừa)",
      "wardCode": 1291
    },
    {
      "id": 2530,
      "code": "2530",
      "name": "Long Cang",
      "type": "xã",
      "area": 31.73,
      "population": 32686,
      "adminCenter": "đang cập nhật",
      "longitude": 106.519,
      "latitude": 10.5947,
      "beforeMerger": "Xã Long Định, Xã Phước Vân, Xã Long Cang",
      "wardCode": 1335
    },
    {
      "id": 2531,
      "code": "2531",
      "name": "Long Chữ",
      "type": "xã",
      "area": 92,
      "population": 17746,
      "adminCenter": "đang cập nhật",
      "longitude": 106.115,
      "latitude": 11.2062,
      "beforeMerger": "Xã Long Vĩnh, Xã Long Phước, Xã Long Chữ",
      "wardCode": 2753
    },
    {
      "id": 2532,
      "code": "2532",
      "name": "Long Hoa",
      "type": "phường",
      "area": 55.99,
      "population": 106017,
      "adminCenter": "đang cập nhật",
      "longitude": 106.164,
      "latitude": 11.26,
      "beforeMerger": "Phường Long Thành Bắc, Phường Long Hoa, Xã Trường Hòa, Xã Trường Tây, Xã Trường Đông",
      "wardCode": 2762
    },
    {
      "id": 2533,
      "code": "2533",
      "name": "Long Hựu",
      "type": "xã",
      "area": 36.89,
      "population": 29057,
      "adminCenter": "đang cập nhật",
      "longitude": 106.691,
      "latitude": 10.4786,
      "beforeMerger": "Xã Long Hựu Đông, Xã Long Hựu Tây",
      "wardCode": 1338
    },
    {
      "id": 2534,
      "code": "2534",
      "name": "Long Thuận",
      "type": "xã",
      "area": 65.61,
      "population": 24518,
      "adminCenter": "đang cập nhật",
      "longitude": 106.1,
      "latitude": 11.1271,
      "beforeMerger": "Xã Long Thuận (huyện Bến Cầu), Xã Long Giang, Xã Long Khánh",
      "wardCode": 2751
    },
    {
      "id": 2535,
      "code": "2535",
      "name": "Lương Hòa",
      "type": "xã",
      "area": 37.48,
      "population": 2594,
      "adminCenter": "đang cập nhật",
      "longitude": 106.45,
      "latitude": 10.7083,
      "beforeMerger": "Xã Tân Bửu, Xã Lương Hòa",
      "wardCode": 1324
    },
    {
      "id": 2536,
      "code": "2536",
      "name": "Mộc Hóa",
      "type": "xã",
      "area": 135.182,
      "population": 0,
      "adminCenter": "đang cập nhật",
      "longitude": 106.022,
      "latitude": 10.7135,
      "beforeMerger": "Xã Tân Thành, Xã Tân Lập (huyện Mộc Hóa), Thị trấn Bình Phong Thạnh",
      "wardCode": 1305
    },
    {
      "id": 2537,
      "code": "2537",
      "name": "Mỹ An",
      "type": "xã",
      "area": 32.76,
      "population": 20682,
      "adminCenter": "đang cập nhật",
      "longitude": 106.341,
      "latitude": 10.5762,
      "beforeMerger": "Xã Mỹ Phú, Xã Mỹ An",
      "wardCode": 1330
    },
    {
      "id": 2538,
      "code": "2538",
      "name": "Mỹ Hạnh",
      "type": "xã",
      "area": 63.44,
      "population": 56793,
      "adminCenter": "đang cập nhật",
      "longitude": 106.482,
      "latitude": 10.8472,
      "beforeMerger": "Xã Đức Hòa Đông, Xã Mỹ Hạnh Nam, Xã Đức Hòa Thượng",
      "wardCode": 1362
    },
    {
      "id": 2539,
      "code": "2539",
      "name": "Mỹ Lệ",
      "type": "xã",
      "area": 39.85,
      "population": 36969,
      "adminCenter": "đang cập nhật",
      "longitude": 106.575,
      "latitude": 10.5599,
      "beforeMerger": "Xã Tân Trạch, Xã Long Sơn, Xã Mỹ Lệ",
      "wardCode": 1336
    },
    {
      "id": 2540,
      "code": "2540",
      "name": "Mỹ Lộc",
      "type": "xã",
      "area": 32.71,
      "population": 40199,
      "adminCenter": "đang cập nhật",
      "longitude": 106.625,
      "latitude": 10.5934,
      "beforeMerger": "Xã Phước Lâm, Xã Thuận Thành, Xã Mỹ Lộc",
      "wardCode": 1341
    },
    {
      "id": 2541,
      "code": "2541",
      "name": "Mỹ Quý",
      "type": "xã",
      "area": 132.98,
      "population": 28537,
      "adminCenter": "đang cập nhật",
      "longitude": 106.219,
      "latitude": 10.9385,
      "beforeMerger": "Xã Mỹ Thạnh Bắc, Xã Mỹ Quý Đông, Xã Mỹ Quý Tây",
      "wardCode": 1349
    },
    {
      "id": 2542,
      "code": "2542",
      "name": "Mỹ Thạnh",
      "type": "xã",
      "area": 63.7,
      "population": 2653,
      "adminCenter": "đang cập nhật",
      "longitude": 106.361,
      "latitude": 10.6365,
      "beforeMerger": "Xã Bình An, Xã Mỹ Lạc, Xã Mỹ Thạnh, Xã Tân Thành (huyện Thủ Thừa)",
      "wardCode": 1329
    },
    {
      "id": 2543,
      "code": "2543",
      "name": "Mỹ Yên",
      "type": "xã",
      "area": 29.23,
      "population": 49248,
      "adminCenter": "đang cập nhật",
      "longitude": 106.533,
      "latitude": 10.6387,
      "beforeMerger": "Xã Long Hiệp, Xã Phước Lợi, Xã Mỹ Yên",
      "wardCode": 1326
    },
    {
      "id": 2544,
      "code": "2544",
      "name": "Nhơn Hòa Lập",
      "type": "xã",
      "area": 109.77,
      "population": 19949,
      "adminCenter": "đang cập nhật",
      "longitude": 105.96,
      "latitude": 10.6339,
      "beforeMerger": "Xã Tân Lập (huyện Tân Thạnh), Xã Nhơn Hòa, Xã Nhơn Hòa Lập",
      "wardCode": 1332
    },
    {
      "id": 2545,
      "code": "2545",
      "name": "Nhơn Ninh",
      "type": "xã",
      "area": 92.67,
      "population": 27099,
      "adminCenter": "đang cập nhật",
      "longitude": 105.946,
      "latitude": 10.5709,
      "beforeMerger": "Xã Tân Thành (huyện Tân Thạnh), Xã Tân Ninh, Xã Nhơn Ninh",
      "wardCode": 1344
    },
    {
      "id": 2546,
      "code": "2546",
      "name": "Nhựt Tảo",
      "type": "xã",
      "area": 36.45,
      "population": 30168,
      "adminCenter": "đang cập nhật",
      "longitude": 106.477,
      "latitude": 10.5677,
      "beforeMerger": "Xã Tân Bình (huyện Tân Trụ), Xã Quê Mỹ Thạnh, Xã Lạc Tấn, Xã Nhị Thành, Thủ Thừa",
      "wardCode": 1331
    },
    {
      "id": 2547,
      "code": "2547",
      "name": "Ninh Điền",
      "type": "xã",
      "area": 152.23,
      "population": 2347,
      "adminCenter": "đang cập nhật",
      "longitude": 105.992,
      "latitude": 11.2357,
      "beforeMerger": "Xã Thành Long, Xã Ninh Điền",
      "wardCode": 2758
    },
    {
      "id": 2548,
      "code": "2548",
      "name": "Ninh Thạnh",
      "type": "phường",
      "area": 52.66,
      "population": 52249,
      "adminCenter": "đang cập nhật",
      "longitude": 106.157,
      "latitude": 11.3275,
      "beforeMerger": "Phường Ninh Thạnh, Xã Bàu Năng, Xã Chà Là",
      "wardCode": 2766
    },
    {
      "id": 2549,
      "code": "2549",
      "name": "Phước Chỉ",
      "type": "xã",
      "area": 82.84,
      "population": 31461,
      "adminCenter": "đang cập nhật",
      "longitude": 106.231,
      "latitude": 11.0172,
      "beforeMerger": "Xã Phước Bình, Xã Phước Chỉ",
      "wardCode": 2745
    },
    {
      "id": 2550,
      "code": "2550",
      "name": "Phước Lý",
      "type": "xã",
      "area": 27.37,
      "population": 4284,
      "adminCenter": "đang cập nhật",
      "longitude": 106.609,
      "latitude": 10.631,
      "beforeMerger": "Xã Long Thượng, Xã Phước Hậu, Xã Phước Lý",
      "wardCode": 1340
    },
    {
      "id": 2551,
      "code": "2551",
      "name": "Phước Thạnh",
      "type": "xã",
      "area": 70.89,
      "population": 44113,
      "adminCenter": "đang cập nhật",
      "longitude": 106.267,
      "latitude": 11.139,
      "beforeMerger": "Xã Hiệp Thạnh (huyện Gò Dầu), Xã Phước Trạch, Xã Phước Thạnh",
      "wardCode": 2752
    },
    {
      "id": 2552,
      "code": "2552",
      "name": "Phước Vinh",
      "type": "xã",
      "area": 165.08,
      "population": 23314,
      "adminCenter": "đang cập nhật",
      "longitude": 105.929,
      "latitude": 11.4551,
      "beforeMerger": "Xã Hòa Hiệp, Xã Phước Vinh",
      "wardCode": 2770
    },
    {
      "id": 2553,
      "code": "2553",
      "name": "Phước Vĩnh Tây",
      "type": "xã",
      "area": 34.4,
      "population": 28127,
      "adminCenter": "đang cập nhật",
      "longitude": 106.666,
      "latitude": 10.5587,
      "beforeMerger": "Xã Long An, Xã Long Phụng, Xã Phước Vĩnh Tây",
      "wardCode": 1342
    },
    {
      "id": 2554,
      "code": "2554",
      "name": "Rạch Kiến",
      "type": "xã",
      "area": 24.53,
      "population": 38795,
      "adminCenter": "đang cập nhật",
      "longitude": 106.575,
      "latitude": 10.6077,
      "beforeMerger": "Xã Long Trạch, Xã Long Khê, Xã Long Hòa",
      "wardCode": 1334
    },
    {
      "id": 2555,
      "code": "2555",
      "name": "Tầm Vu",
      "type": "xã",
      "area": 43.5,
      "population": 35956,
      "adminCenter": "đang cập nhật",
      "longitude": 106.48,
      "latitude": 10.4743,
      "beforeMerger": "Thị trấn Tầm Vu, Xã Hiệp Thạnh (huyện Châu Thành), Xã Phú Ngãi Trị, Xã Phước Tân Hưng",
      "wardCode": 1356
    },
    {
      "id": 2556,
      "code": "2556",
      "name": "Tân An",
      "type": "phường",
      "area": 8.06,
      "population": 85997,
      "adminCenter": "đang cập nhật",
      "longitude": 106.407,
      "latitude": 10.5101,
      "beforeMerger": "Phường 7, Xã Bình Tâm, Xã Nhơn Thạnh Trung, Xã An Vĩnh Ngãi",
      "wardCode": 1292
    },
    {
      "id": 2557,
      "code": "2557",
      "name": "Tân Biên",
      "type": "xã",
      "area": 244.71,
      "population": 36771,
      "adminCenter": "đang cập nhật",
      "longitude": 105.925,
      "latitude": 11.5694,
      "beforeMerger": "Xã Tân Bình (huyện Tân Biên), Xã Thạnh Tây, Thị trấn Tân Biên",
      "wardCode": 2774
    },
    {
      "id": 2558,
      "code": "2558",
      "name": "Tân Châu",
      "type": "xã",
      "area": 54.77,
      "population": 24072,
      "adminCenter": "đang cập nhật",
      "longitude": 106.149,
      "latitude": 11.5522,
      "beforeMerger": "Thị trấn Tân Châu, Xã Thạnh Đông, Xã Tân Phú (huyện Tân Châu), Xã Suối Dây",
      "wardCode": 2775
    },
    {
      "id": 2559,
      "code": "2559",
      "name": "Tân Đông",
      "type": "xã",
      "area": 50.4,
      "population": 51413,
      "adminCenter": "đang cập nhật",
      "longitude": 106.213,
      "latitude": 11.6962,
      "beforeMerger": "Xã Tân Đông (huyện Tân Châu), Xã Tân Hà",
      "wardCode": 2779
    },
    {
      "id": 2560,
      "code": "2560",
      "name": "Tân Hòa",
      "type": "xã",
      "area": 58.6,
      "population": 50989,
      "adminCenter": "đang cập nhật",
      "longitude": 106.373,
      "latitude": 11.5893,
      "beforeMerger": "Xã Tân Hòa (huyện Tân Châu), Xã Suối Ngô",
      "wardCode": 2777
    },
    {
      "id": 2561,
      "code": "2561",
      "name": "Tân Hội",
      "type": "xã",
      "area": 146.28,
      "population": 4945,
      "adminCenter": "đang cập nhật",
      "longitude": 106.165,
      "latitude": 11.6371,
      "beforeMerger": "Xã Tân Hiệp (huyện Tân Châu), Xã Tân Hội",
      "wardCode": 2778
    },
    {
      "id": 2562,
      "code": "2562",
      "name": "Tân Hưng",
      "type": "xã",
      "area": 92.41,
      "population": 35222,
      "adminCenter": "đang cập nhật",
      "longitude": 105.719,
      "latitude": 10.8155,
      "beforeMerger": "Thị trấn Tân Hưng, Xã Vĩnh Thạnh, Xã Vĩnh Lợi",
      "wardCode": 1294
    },
    {
      "id": 2563,
      "code": "2563",
      "name": "Tân Lân",
      "type": "xã",
      "area": 38.93,
      "population": 29984,
      "adminCenter": "đang cập nhật",
      "longitude": 106.632,
      "latitude": 10.507,
      "beforeMerger": "Xã Phước Đông (huyện Cần Đước), Xã Tân Lân",
      "wardCode": 1337
    },
    {
      "id": 2564,
      "code": "2564",
      "name": "Tân Lập",
      "type": "xã",
      "area": 257.61,
      "population": 1681,
      "adminCenter": "đang cập nhật",
      "longitude": 106.04,
      "latitude": 11.6778,
      "beforeMerger": "Xã Tân Lập (huyện Tân Biên), Xã Thạnh Bắc",
      "wardCode": 2780
    },
    {
      "id": 2565,
      "code": "2565",
      "name": "Tân Long",
      "type": "xã",
      "area": 102.12,
      "population": 35492,
      "adminCenter": "đang cập nhật",
      "longitude": 106.298,
      "latitude": 10.7074,
      "beforeMerger": "Xã Long Thuận (huyện Thủ Thừa), Xã Long Thạnh, Xã Tân Long",
      "wardCode": 1328
    },
    {
      "id": 2566,
      "code": "2566",
      "name": "Tân Ninh",
      "type": "phường",
      "area": 21.35,
      "population": 8936,
      "adminCenter": "đang cập nhật",
      "longitude": 106.103,
      "latitude": 11.3153,
      "beforeMerger": "Phường 1, Phường 2, Phường 3 (thành phố Tây Ninh), Phường IV, Phường Hiệp Ninh, Xã Thái Bình",
      "wardCode": 2763
    },
    {
      "id": 2567,
      "code": "2567",
      "name": "Tân Phú",
      "type": "xã",
      "area": 38.6,
      "population": 3136,
      "adminCenter": "đang cập nhật",
      "longitude": 106.162,
      "latitude": 11.4746,
      "beforeMerger": "Xã Tân Hưng, Xã Mỏ Công, Xã Trà Vong, Xã Tân Phong, Xã Tân Phú (huyện Tân Châu)",
      "wardCode": 2772
    },
    {
      "id": 2568,
      "code": "2568",
      "name": "Tân Tập",
      "type": "xã",
      "area": 60.22,
      "population": 44767,
      "adminCenter": "đang cập nhật",
      "longitude": 106.709,
      "latitude": 10.5367,
      "beforeMerger": "Xã Đông Thạnh, Xã Phước Vĩnh Đông, Xã Tân Tập",
      "wardCode": 1355
    },
    {
      "id": 2569,
      "code": "2569",
      "name": "Tân Tây",
      "type": "xã",
      "area": 113.45,
      "population": 19438,
      "adminCenter": "đang cập nhật",
      "longitude": 106.254,
      "latitude": 10.6223,
      "beforeMerger": "Xã Tân Đông (huyện Thạnh Hóa), Xã Thủy Đông, Xã Tân Tây",
      "wardCode": 1347
    },
    {
      "id": 2570,
      "code": "2570",
      "name": "Tân Thành",
      "type": "xã",
      "area": 64.8,
      "population": 30611,
      "adminCenter": "đang cập nhật",
      "longitude": 106.269,
      "latitude": 11.5098,
      "beforeMerger": "Xã Tân Thành (huyện Tân Châu), Xã Suối Dây",
      "wardCode": 2773
    },
    {
      "id": 2571,
      "code": "2571",
      "name": "Tân Thạnh",
      "type": "xã",
      "area": 70.8,
      "population": 35806,
      "adminCenter": "đang cập nhật",
      "longitude": 106.054,
      "latitude": 10.5834,
      "beforeMerger": "Xã Tân Bình, Xã Tân Hòa (huyện Tân Thạnh), Xã Kiến Bình, Thị trấn Tân Thạnh",
      "wardCode": 1322
    },
    {
      "id": 2572,
      "code": "2572",
      "name": "Tân Trụ",
      "type": "xã",
      "area": 30.84,
      "population": 26855,
      "adminCenter": "đang cập nhật",
      "longitude": 106.5,
      "latitude": 10.5283,
      "beforeMerger": "Thị trấn Tân Trụ, Xã Bình Trinh Đông, Xã Bình Lãng, Xã Bình Tịnh",
      "wardCode": 1359
    },
    {
      "id": 2573,
      "code": "2573",
      "name": "Thạnh Bình",
      "type": "xã",
      "area": 174.92,
      "population": 30764,
      "adminCenter": "đang cập nhật",
      "longitude": 106.059,
      "latitude": 11.5357,
      "beforeMerger": "Xã Thạnh Bình, Xã Tân Phong",
      "wardCode": 2776
    },
    {
      "id": 2574,
      "code": "2574",
      "name": "Thanh Điền",
      "type": "phường",
      "area": 30.73,
      "population": 43528,
      "adminCenter": "đang cập nhật",
      "longitude": 106.086,
      "latitude": 11.2709,
      "beforeMerger": "Phường Hiệp Tân, Xã Thanh Điền",
      "wardCode": 2761
    },
    {
      "id": 2575,
      "code": "2575",
      "name": "Thạnh Đức",
      "type": "xã",
      "area": 99.06,
      "population": 44539,
      "adminCenter": "đang cập nhật",
      "longitude": 106.203,
      "latitude": 11.1967,
      "beforeMerger": "Xã Thạnh Đức (huyện Gò Dầu), Xã Cẩm Giang",
      "wardCode": 2757
    },
    {
      "id": 2576,
      "code": "2576",
      "name": "Thạnh Hóa",
      "type": "xã",
      "area": 108.18,
      "population": 16738,
      "adminCenter": "đang cập nhật",
      "longitude": 106.146,
      "latitude": 10.6197,
      "beforeMerger": "Thị trấn Thạnh Hóa, Xã Thủy Tây, Xã Thạnh An",
      "wardCode": 1306
    },
    {
      "id": 2577,
      "code": "2577",
      "name": "Thạnh Lợi",
      "type": "xã",
      "area": 96.52,
      "population": 24037,
      "adminCenter": "đang cập nhật",
      "longitude": 106.399,
      "latitude": 10.7438,
      "beforeMerger": "Xã Thạnh Hòa, Xã Lương Bình, Xã Thạnh Lợi",
      "wardCode": 1323
    },
    {
      "id": 2578,
      "code": "2578",
      "name": "Thạnh Phước",
      "type": "xã",
      "area": 76.99,
      "population": 21208,
      "adminCenter": "đang cập nhật",
      "longitude": 106.134,
      "latitude": 10.6927,
      "beforeMerger": "Xã Thuận Nghĩa Hòa, Xã Thạnh Phú, Xã Thạnh Phước",
      "wardCode": 1346
    },
    {
      "id": 2579,
      "code": "2579",
      "name": "Thủ Thừa",
      "type": "xã",
      "area": 50.45,
      "population": 44485,
      "adminCenter": "đang cập nhật",
      "longitude": 106.412,
      "latitude": 10.6039,
      "beforeMerger": "Thị trấn Thủ Thừa, Xã Bình Thạnh, Xã Tân Thành (huyện Thủ Thừa), Xã Nhị Thành",
      "wardCode": 1327
    },
    {
      "id": 2580,
      "code": "2580",
      "name": "Thuận Mỹ",
      "type": "xã",
      "area": 53.37,
      "population": 3933,
      "adminCenter": "đang cập nhật",
      "longitude": 106.539,
      "latitude": 10.4502,
      "beforeMerger": "Xã Thanh Phú Long, Xã Thanh Vĩnh Đông, Xã Thuận Mỹ",
      "wardCode": 1307
    },
    {
      "id": 2581,
      "code": "2581",
      "name": "Trà Vong",
      "type": "xã",
      "area": 88.67,
      "population": 24316,
      "adminCenter": "đang cập nhật",
      "longitude": 106.057,
      "latitude": 11.4432,
      "beforeMerger": "Xã Mỏ Công, Xã Trà Vong",
      "wardCode": 2771
    },
    {
      "id": 2582,
      "code": "2582",
      "name": "Trảng Bàng",
      "type": "phường",
      "area": 36.97,
      "population": 53532,
      "adminCenter": "đang cập nhật",
      "longitude": 106.325,
      "latitude": 11.0323,
      "beforeMerger": "Phường An Hòa, Phường Trảng Bàng",
      "wardCode": 2746
    },
    {
      "id": 2583,
      "code": "2583",
      "name": "Truông Mít",
      "type": "xã",
      "area": 74.43,
      "population": 40174,
      "adminCenter": "đang cập nhật",
      "longitude": 106.294,
      "latitude": 11.2046,
      "beforeMerger": "Xã Bàu Đồn, Xã Truông Mít",
      "wardCode": 2756
    },
    {
      "id": 2584,
      "code": "2584",
      "name": "Tuyên Bình",
      "type": "xã",
      "area": 137.81,
      "population": 19158,
      "adminCenter": "đang cập nhật",
      "longitude": 105.832,
      "latitude": 10.8355,
      "beforeMerger": "Xã Tuyên Bình, Xã Tuyên Bình Tây, Xã Vĩnh Bình, Xã Vĩnh Thuận, Xã Thái Bình Trung",
      "wardCode": 1300
    },
    {
      "id": 2585,
      "code": "2585",
      "name": "Tuyên Thạnh",
      "type": "xã",
      "area": 108.81,
      "population": 15331,
      "adminCenter": "đang cập nhật",
      "longitude": 105.875,
      "latitude": 10.7424,
      "beforeMerger": "Xã Thạnh Hưng (thị xã Kiến Tường), Xã Tuyên Thạnh, Xã Bắc Hòa",
      "wardCode": 1303
    },
    {
      "id": 2586,
      "code": "2586",
      "name": "Vàm Cỏ",
      "type": "xã",
      "area": 40.6547,
      "population": 0,
      "adminCenter": "đang cập nhật",
      "longitude": 106.541,
      "latitude": 10.5072,
      "beforeMerger": "Xã Tân Phước Tây, Xã Nhựt Ninh, Xã Đức Tân",
      "wardCode": 1333
    },
    {
      "id": 2587,
      "code": "2587",
      "name": "Vĩnh Châu",
      "type": "xã",
      "area": 144.28,
      "population": 13022,
      "adminCenter": "đang cập nhật",
      "longitude": 105.757,
      "latitude": 10.7312,
      "beforeMerger": "Xã Vĩnh Đại, Xã Vĩnh Bửu, Xã Vĩnh Châu A",
      "wardCode": 1297
    },
    {
      "id": 2588,
      "code": "2588",
      "name": "Vĩnh Công",
      "type": "xã",
      "area": 24.71,
      "population": 22784,
      "adminCenter": "đang cập nhật",
      "longitude": 106.445,
      "latitude": 10.4997,
      "beforeMerger": "Xã Hòa Phú, Xã Bình Quới, Xã Vĩnh Công",
      "wardCode": 1357
    },
    {
      "id": 2589,
      "code": "2589",
      "name": "Vĩnh Hưng",
      "type": "xã",
      "area": 95.26,
      "population": 21204,
      "adminCenter": "đang cập nhật",
      "longitude": 105.789,
      "latitude": 10.8788,
      "beforeMerger": "Thị trấn Vĩnh Hưng, Xã Vĩnh Trị, Xã Thái Trị, Xã Khánh Hưng, Xã Thái Bình Trung, Xã Vĩnh Thuận, Xã Vĩnh Bình",
      "wardCode": 1298
    },
    {
      "id": 2590,
      "code": "2590",
      "name": "Vĩnh Thạnh",
      "type": "xã",
      "area": 65.9,
      "population": 30522,
      "adminCenter": "đang cập nhật",
      "longitude": 105.717,
      "latitude": 10.8824,
      "beforeMerger": "Xã Thạnh Hưng (huyện Tân Hưng), Xã Vĩnh Châu B, Xã Hưng Thạnh",
      "wardCode": 1296
    }
  ]
}