{
  "provinceId": 3,
  "provinceName": "tỉnh Tuyên Quang",
  "mahc": 8,
  "wards": [
    {
      "id": 731,
      "code": "0731",
      "name": "An Sinh",
      "type": "phường",
      "area": 106.42,
      "population": 24956,
      "adminCenter": "Trụ sở Đảng ủy, HĐND, UBND phường Bình Dương",
      "longitude": 106.521,
      "latitude": 21.1533,
      "beforeMerger": "Phường Bình Dương, Xã An Sinh, Xã Việt Dân, Phường Đức Chính",
      "wardCode": 1914
    },
    {
      "id": 732,
      "code": "0732",
      "name": "Ba Chẽ",
      "type": "xã",
      "area": 332.68,
      "population": 17504,
      "adminCenter": "Trụ sở Huyện ủy Ba Chẽ",
      "longitude": 107.252,
      "latitude": 21.2527,
      "beforeMerger": "Thị trấn Ba Chẽ, Xã Thanh Sơn, Xã Nam Sơn, Xã Đồn Đạc, Xã Hải Lạng",
      "wardCode": 1896
    },
    {
      "id": 733,
      "code": "0733",
      "name": "Bãi Cháy",
      "type": "phường",
      "area": 25.39,
      "population": 42018,
      "adminCenter": "Trụ sở Đảng ủy, HĐND, UBND phường Bãi Cháy",
      "longitude": 107.032,
      "latitude": 20.962,
      "beforeMerger": "Phường Hùng Thắng, Phường Bãi Cháy",
      "wardCode": 1883
    },
    {
      "id": 734,
      "code": "0734",
      "name": "Bình Khê",
      "type": "phường",
      "area": 138.74,
      "population": 21845,
      "adminCenter": "Trụ sở Đảng ủy, HĐND, UBND phường Bình Khê",
      "longitude": 106.626,
      "latitude": 21.1294,
      "beforeMerger": "Phường Tràng An, Phường Bình Khê, Xã Tràng Lương",
      "wardCode": 1874
    },
    {
      "id": 735,
      "code": "0735",
      "name": "Bình Liêu",
      "type": "xã",
      "area": 225.29,
      "population": 16220,
      "adminCenter": "Trụ sở Đảng ủy, HĐND, UBND huyện Bình Liêu",
      "longitude": 107.387,
      "latitude": 21.5172,
      "beforeMerger": "Thị trấn Bình Liêu, Xã Húc Động, Xã Vô Ngại",
      "wardCode": 1889
    },
    {
      "id": 736,
      "code": "0736",
      "name": "Cái Chiên",
      "type": "xã",
      "area": 25.9,
      "population": 752,
      "adminCenter": "Trụ sở Đảng ủy, HĐND, UBND xã Cái Chiên",
      "longitude": 107.764,
      "latitude": 21.324,
      "beforeMerger": "Không sáp nhập",
      "wardCode": 3315
    },
    {
      "id": 737,
      "code": "0737",
      "name": "Cẩm Phả",
      "type": "phường",
      "area": 17.52,
      "population": 61506,
      "adminCenter": "Thành ủy, HĐND, UBND thành phố Cẩm Phả",
      "longitude": 107.288,
      "latitude": 21.0186,
      "beforeMerger": "Phường Cẩm Trung, Phường Cẩm Thành, Phường Cẩm Bình, Phường Cẩm Tây, Phường Cẩm Đông",
      "wardCode": 1887
    },
    {
      "id": 738,
      "code": "0738",
      "name": "Cao Xanh",
      "type": "phường",
      "area": 38.89,
      "population": 32809,
      "adminCenter": "Trụ sở Đảng ủy, HĐND, UBND phường Cao Xanh",
      "longitude": 107.149,
      "latitude": 21.0152,
      "beforeMerger": "Phường Hà Khánh, Phường Cao Xanh",
      "wardCode": 1894
    },
    {
      "id": 739,
      "code": "0739",
      "name": "Cô Tô",
      "type": "đặc khu",
      "area": 53.68,
      "population": 5151,
      "adminCenter": "Trụ sở Huyện ủy, HĐND, UBND huyện Cô Tô",
      "longitude": 107.757,
      "latitude": 20.9902,
      "beforeMerger": "Thị trấn Cô Tô, Xã Đồng Tiến, Xã Thanh Lân",
      "wardCode": 3308
    },
    {
      "id": 740,
      "code": "0740",
      "name": "Cửa Ông",
      "type": "phường",
      "area": 41.07,
      "population": 66504,
      "adminCenter": "Trụ sở Đảng ủy, HĐND, UBND phường Cẩm Sơn",
      "longitude": 107.335,
      "latitude": 21.0164,
      "beforeMerger": "Phường Cẩm Phú, Phường Cẩm Thịnh, Phường Cẩm Sơn, Phường Cửa Ông",
      "wardCode": 1888
    },
    {
      "id": 741,
      "code": "0741",
      "name": "Đầm Hà",
      "type": "xã",
      "area": 142.43,
      "population": 25947,
      "adminCenter": "Trụ sở Đảng ủy, HĐND, UBND huyện Đầm Hà",
      "longitude": 107.601,
      "latitude": 21.3452,
      "beforeMerger": "Thị trấn Đầm Hà, Xã Tân Bình, Xã Đại Bình, Xã Tân Lập, Xã Đầm Hà",
      "wardCode": 1906
    },
    {
      "id": 742,
      "code": "0742",
      "name": "Điền Xá",
      "type": "xã",
      "area": 240.49,
      "population": 6956,
      "adminCenter": "Trụ sở Đảng ủy, HĐND, UBND xã Điền Xá",
      "longitude": 107.291,
      "latitude": 21.4339,
      "beforeMerger": "Xã Hà Lâu, Xã Điền Xá, Xã Yên Than",
      "wardCode": 1890
    },
    {
      "id": 743,
      "code": "0743",
      "name": "Đông Mai",
      "type": "phường",
      "area": 50.61,
      "population": 21649,
      "adminCenter": "Trụ sở Đảng ủy, HĐND, UBND phường Đông Mai",
      "longitude": 106.855,
      "latitude": 21.0003,
      "beforeMerger": "Phường Minh Thành, Phường Đông Mai",
      "wardCode": 1893
    },
    {
      "id": 744,
      "code": "0744",
      "name": "Đông Ngũ",
      "type": "xã",
      "area": 142.8,
      "population": 18063,
      "adminCenter": "Trụ sở Đảng ủy, HĐND, UBND xã Đông Ngũ",
      "longitude": 107.466,
      "latitude": 21.3723,
      "beforeMerger": "Xã Đông Hải, Xã Đại Dực, Xã Đông Ngũ",
      "wardCode": 1910
    },
    {
      "id": 745,
      "code": "0745",
      "name": "Đông Triều",
      "type": "phường",
      "area": 40.42,
      "population": 43712,
      "adminCenter": "Trụ sở Thành ủy, HĐND, UBND thành phố Đông Triều",
      "longitude": 106.493,
      "latitude": 21.0793,
      "beforeMerger": "Phường Thủy An, Phường Hưng Đạo, Phường Hồng Phong, Xã Nguyễn Huệ, Phường Đức Chính",
      "wardCode": 1915
    },
    {
      "id": 746,
      "code": "0746",
      "name": "Đường Hoa",
      "type": "xã",
      "area": 220.38,
      "population": 17201,
      "adminCenter": "Trụ sở Đảng ủy, HĐND, UBND xã Quảng Long",
      "longitude": 107.634,
      "latitude": 21.4933,
      "beforeMerger": "Xã Quảng Sơn, Xã Đường Hoa, Xã Quảng Long",
      "wardCode": 1909
    },
    {
      "id": 747,
      "code": "0747",
      "name": "Hà An",
      "type": "phường",
      "area": 100.18,
      "population": 21314,
      "adminCenter": "Trụ sở Đảng ủy, HĐND, UBND phường Hà An",
      "longitude": 106.886,
      "latitude": 20.9256,
      "beforeMerger": "Phường Tân An, Phường Hà An, Xã Hoàng Tân, Xã Liên Hòa",
      "wardCode": 1879
    },
    {
      "id": 748,
      "code": "0748",
      "name": "Hà Lầm",
      "type": "phường",
      "area": 11.99,
      "population": 47474,
      "adminCenter": "Trụ sở Đảng ủy, HĐND, UBND phường Cao Thắng",
      "longitude": 107.123,
      "latitude": 20.9668,
      "beforeMerger": "Phường Cao Thắng, Phường Hà Trung, Phường Hà Lầm",
      "wardCode": 1884
    },
    {
      "id": 749,
      "code": "0749",
      "name": "Hạ Long",
      "type": "phường",
      "area": 6.08,
      "population": 52905,
      "adminCenter": "Trụ sở Đảng ủy, HĐND, UBND phường Hồng Hải",
      "longitude": 107.114,
      "latitude": 20.9444,
      "beforeMerger": "Phường Hồng Hà, Phường Hồng Hải",
      "wardCode": 3313
    },
    {
      "id": 750,
      "code": "0750",
      "name": "Hà Tu",
      "type": "phường",
      "area": 37.6,
      "population": 29643,
      "adminCenter": "Trụ sở Đảng ủy, HĐND, UBND phường Hà Phong",
      "longitude": 107.159,
      "latitude": 20.9627,
      "beforeMerger": "Phường Hà Phong, Phường Hà Tu",
      "wardCode": 3299
    },
    {
      "id": 751,
      "code": "0751",
      "name": "Hải Hòa",
      "type": "xã",
      "area": 95.87,
      "population": 5731,
      "adminCenter": "Trụ sở Đảng ủy, HĐND, UBND xã Hải Hòa",
      "longitude": 107.363,
      "latitude": 21.1453,
      "beforeMerger": "Xã Hải Lạng, Xã Hải Hòa",
      "wardCode": 1913
    },
    {
      "id": 752,
      "code": "0752",
      "name": "Hải Lạng",
      "type": "xã",
      "area": 131.03,
      "population": 9827,
      "adminCenter": "Trụ sở Đảng ủy, HĐND, UBND xã Hải Lạng",
      "longitude": 107.384,
      "latitude": 21.2643,
      "beforeMerger": "Xã Đồng Rui, Xã Hải Lạng, Xã Hải Hòa",
      "wardCode": 1899
    },
    {
      "id": 753,
      "code": "0753",
      "name": "Hải Ninh",
      "type": "xã",
      "area": 93.18,
      "population": 10427,
      "adminCenter": "Trụ sở Đảng ủy, HĐND, UBND xã Hải Tiến",
      "longitude": 107.799,
      "latitude": 21.5366,
      "beforeMerger": "Xã Quảng Nghĩa, Xã Hải Tiến",
      "wardCode": 1902
    },
    {
      "id": 754,
      "code": "0754",
      "name": "Hải Sơn",
      "type": "xã",
      "area": 132.04,
      "population": 4567,
      "adminCenter": "Trụ sở Đảng ủy, HĐND, UBND xã Hải Sơn",
      "longitude": 107.818,
      "latitude": 21.6085,
      "beforeMerger": "Xã Bắc Sơn, Xã Hải Sơn",
      "wardCode": 1901
    },
    {
      "id": 755,
      "code": "0755",
      "name": "Hiệp Hòa",
      "type": "phường",
      "area": 35.83,
      "population": 33381,
      "adminCenter": "Trụ sở Đảng ủy, HĐND, UBND phường Hiệp Hòa",
      "longitude": 106.81,
      "latitude": 20.9676,
      "beforeMerger": "Phường Cộng Hòa, Xã Sông Khoai, Xã Hiệp Hòa",
      "wardCode": 1892
    },
    {
      "id": 756,
      "code": "0756",
      "name": "Hoàng Quế",
      "type": "phường",
      "area": 63.83,
      "population": 31988,
      "adminCenter": "Trụ sở Đảng ủy, HĐND, UBND phường Hoàng Quế",
      "longitude": 106.664,
      "latitude": 21.0547,
      "beforeMerger": "Phường Yên Đức, Phường Hoàng Quế, Xã Hồng Thái Tây, Xã Hồng Thái Đông",
      "wardCode": 1875
    },
    {
      "id": 757,
      "code": "0757",
      "name": "Hoành Bồ",
      "type": "phường",
      "area": 276.12,
      "population": 17310,
      "adminCenter": "Trụ sở Đảng ủy, HĐND, UBND phường Hoành Bồ",
      "longitude": 106.985,
      "latitude": 21.0669,
      "beforeMerger": "Phường Hoành Bồ, Xã Sơn Dương, Xã Lê Lợi, Xã Đồng Lâm",
      "wardCode": 1880
    },
    {
      "id": 758,
      "code": "0758",
      "name": "Hoành Mô",
      "type": "xã",
      "area": 137.91,
      "population": 9014,
      "adminCenter": "Trụ sở Đảng ủy, HĐND, UBND xã Hoành Mô",
      "longitude": 107.523,
      "latitude": 21.5592,
      "beforeMerger": "Xã Đồng Văn, Xã Hoành Mô",
      "wardCode": 1907
    },
    {
      "id": 759,
      "code": "0759",
      "name": "Hồng Gai",
      "type": "phường",
      "area": 5,
      "population": 51333,
      "adminCenter": "Trụ sở Đảng ủy, HĐND, UBND phường Trần Hưng Đạo",
      "longitude": 107.078,
      "latitude": 20.9541,
      "beforeMerger": "Phường Bạch Đằng, Phường Trần Hưng Đạo, Phường Hồng Gai",
      "wardCode": 3309
    },
    {
      "id": 760,
      "code": "0760",
      "name": "Kỳ Thượng",
      "type": "xã",
      "area": 273.5,
      "population": 5918,
      "adminCenter": "Trụ sở Đảng ủy, HĐND, UBND xã Đạp Thanh",
      "longitude": 107.131,
      "latitude": 21.2659,
      "beforeMerger": "Xã Thanh Lâm, Xã Đạp Thanh, Xã Kỳ Thượng",
      "wardCode": 1897
    },
    {
      "id": 761,
      "code": "0761",
      "name": "Liên Hòa",
      "type": "phường",
      "area": 71.44,
      "population": 32847,
      "adminCenter": "Trụ sở Đảng ủy, HĐND, UBND xã Liên Hòa",
      "longitude": 106.825,
      "latitude": 20.8601,
      "beforeMerger": "Phường Phong Hải, Xã Liên Vị, Xã Tiền Phong, Xã Liên Hòa",
      "wardCode": 1895
    },
    {
      "id": 762,
      "code": "0762",
      "name": "Lục Hồn",
      "type": "xã",
      "area": 107.13,
      "population": 9974,
      "adminCenter": "Trụ sở Đảng ủy, HĐND, UBND xã Lục Hồn",
      "longitude": 107.438,
      "latitude": 21.5737,
      "beforeMerger": "Xã Đồng Tâm, Xã Lục Hồn",
      "wardCode": 1908
    },
    {
      "id": 763,
      "code": "0763",
      "name": "Lương Minh",
      "type": "xã",
      "area": 225.28,
      "population": 5608,
      "adminCenter": "Trụ sở Đảng ủy, HĐND, UBND xã Lương Minh",
      "longitude": 107.029,
      "latitude": 21.2134,
      "beforeMerger": "Xã Đồng Sơn, Xã Lương Minh",
      "wardCode": 1876
    },
    {
      "id": 764,
      "code": "0764",
      "name": "Mạo Khê",
      "type": "phường",
      "area": 46.55,
      "population": 72012,
      "adminCenter": "Trụ sở Đảng ủy, HĐND, UBND phường Mạo Khê",
      "longitude": 106.61,
      "latitude": 21.065,
      "beforeMerger": "Phường Xuân Sơn, Phường Kim Sơn, Phường Yên Thọ, Phường Mạo Khê",
      "wardCode": 1916
    },
    {
      "id": 765,
      "code": "0765",
      "name": "Móng Cái 1",
      "type": "phường",
      "area": 82.47,
      "population": 46588,
      "adminCenter": "Trụ sở Thành ủy, HĐND, UBND thành phố Móng Cái",
      "longitude": 107.995,
      "latitude": 21.5029,
      "beforeMerger": "Phường Trần Phú, Phường Hải Hòa, Phường Bình Ngọc, Phường Trà Cổ, Xã Hải Xuân",
      "wardCode": 1918
    },
    {
      "id": 766,
      "code": "0766",
      "name": "Móng Cái 2",
      "type": "phường",
      "area": 72.97,
      "population": 29189,
      "adminCenter": "Trụ sở Đảng ủy, HĐND, UBND phường Ka Long",
      "longitude": 107.949,
      "latitude": 21.4919,
      "beforeMerger": "Phường Ninh Dương, Phường Ka Long, Xã Vạn Ninh",
      "wardCode": 1912
    },
    {
      "id": 767,
      "code": "0767",
      "name": "Móng Cái 3",
      "type": "phường",
      "area": 90.03,
      "population": 22565,
      "adminCenter": "Trụ sở Đảng ủy, HĐND, UBND phường Hải Yên",
      "longitude": 107.898,
      "latitude": 21.5406,
      "beforeMerger": "Phường Hải Yên, Xã Hải Đông",
      "wardCode": 1904
    },
    {
      "id": 768,
      "code": "0768",
      "name": "Mông Dương",
      "type": "phường",
      "area": 167.16,
      "population": 18953,
      "adminCenter": "Trụ sở Đảng ủy, HĐND, UBND phường Mông Dương",
      "longitude": 107.327,
      "latitude": 21.073,
      "beforeMerger": "Phường Mông Dương, Xã Dương Huy",
      "wardCode": 1886
    },
    {
      "id": 769,
      "code": "0769",
      "name": "Phong Cốc",
      "type": "phường",
      "area": 42.17,
      "population": 27356,
      "adminCenter": "Trụ sở Đảng ủy, HĐND, UBND phường Phong Cốc",
      "longitude": 106.788,
      "latitude": 20.8973,
      "beforeMerger": "Phường Nam Hòa, Phường Yên Hải, Phường Phong Cốc, Xã Cẩm La",
      "wardCode": 1891
    },
    {
      "id": 770,
      "code": "0770",
      "name": "Quảng Đức",
      "type": "xã",
      "area": 131.48,
      "population": 11682,
      "adminCenter": "Trụ sở Đảng ủy, HĐND, UBND xã Quảng Thành",
      "longitude": 107.71,
      "latitude": 21.5489,
      "beforeMerger": "Xã Quảng Thành, Xã Quảng Thịnh, Xã Quảng Đức",
      "wardCode": 1911
    },
    {
      "id": 771,
      "code": "0771",
      "name": "Quảng Hà",
      "type": "xã",
      "area": 134.37,
      "population": 40988,
      "adminCenter": "Trụ sở Đảng ủy, HĐND, UBND thị trấn Quảng Hà",
      "longitude": 107.734,
      "latitude": 21.4174,
      "beforeMerger": "Thị trấn Quảng Hà, Xã Quảng Minh, Xã Quảng Chính, Xã Quảng Phong, Xã Quảng Long",
      "wardCode": 1903
    },
    {
      "id": 772,
      "code": "0772",
      "name": "Quang Hanh",
      "type": "phường",
      "area": 63.63,
      "population": 52750,
      "adminCenter": "Trụ sở Đảng ủy, HĐND, UBND phường Quang Hanh",
      "longitude": 107.212,
      "latitude": 20.9995,
      "beforeMerger": "Phường Cẩm Thạch, Phường Cẩm Thủy, Phường Quang Hanh",
      "wardCode": 1885
    },
    {
      "id": 773,
      "code": "0773",
      "name": "Quảng La",
      "type": "xã",
      "area": 165.67,
      "population": 9183,
      "adminCenter": "Trụ sở Đảng ủy, HĐND, UBND xã Quảng La",
      "longitude": 106.885,
      "latitude": 21.1092,
      "beforeMerger": "Xã Bằng Cả, Xã Dân Chủ, Xã Tân Dân, Xã Quảng La",
      "wardCode": 1877
    },
    {
      "id": 774,
      "code": "0774",
      "name": "Quảng Tân",
      "type": "xã",
      "area": 184.81,
      "population": 18049,
      "adminCenter": "Trụ sở Đảng ủy, HĐND, UBND xã Quảng Tân",
      "longitude": 107.545,
      "latitude": 21.4178,
      "beforeMerger": "Xã Quảng An, Xã Dực Yên, Xã Quảng Lâm, Xã Quảng Tân",
      "wardCode": 1905
    },
    {
      "id": 775,
      "code": "0775",
      "name": "Quảng Yên",
      "type": "phường",
      "area": 20.69,
      "population": 31353,
      "adminCenter": "Trụ sở Đảng ủy, HĐND, UBND thị xã Quảng Yên",
      "longitude": 106.817,
      "latitude": 20.9334,
      "beforeMerger": "Phường Yên Giang, Phường Quảng Yên, Xã Tiền An",
      "wardCode": 1900
    },
    {
      "id": 776,
      "code": "0776",
      "name": "Thống Nhất",
      "type": "xã",
      "area": 276.12,
      "population": 17310,
      "adminCenter": "Trụ sở Đảng ủy, HĐND, UBND xã Thống Nhất",
      "longitude": 107.125,
      "latitude": 21.0828,
      "beforeMerger": "Xã Vũ Oai, Xã Hòa Bình, Xã Thống Nhất, Xã Đồng Lâm",
      "wardCode": 1881
    },
    {
      "id": 777,
      "code": "0777",
      "name": "Tiên Yên",
      "type": "xã",
      "area": 137.87,
      "population": 22164,
      "adminCenter": "Trụ sở Đảng ủy, HĐND, UBND huyện Tiên Yên",
      "longitude": 107.394,
      "latitude": 21.376,
      "beforeMerger": "Thị trấn Tiên Yên, Xã Phong Dụ, Xã Tiên Lãng, Xã Yên Than, Xã Đại Dực, Xã Đông Ngũ, Xã Vô Ngại",
      "wardCode": 1898
    },
    {
      "id": 778,
      "code": "0778",
      "name": "Tuần Châu",
      "type": "phường",
      "area": 62.08,
      "population": 14904,
      "adminCenter": "Trụ sở Đảng ủy, HĐND, UBND phường Đại Yên",
      "longitude": 106.912,
      "latitude": 20.9902,
      "beforeMerger": "Phường Đại Yên, Phường Tuần Châu, Phường Hà Khẩu",
      "wardCode": 1917
    },
    {
      "id": 779,
      "code": "0779",
      "name": "Uông Bí",
      "type": "phường",
      "area": 49.81,
      "population": 59866,
      "adminCenter": "Trụ sở Thành ủy, HĐND, UBND thành phố Uông Bí",
      "longitude": 106.766,
      "latitude": 21.0249,
      "beforeMerger": "Phường Quang Trung, Phường Thanh Sơn, Phường Yên Thanh, Phường Trưng Vương",
      "wardCode": 1872
    },
    {
      "id": 780,
      "code": "0780",
      "name": "Vân Đồn",
      "type": "đặc khu",
      "area": 538.92,
      "population": 53904,
      "adminCenter": "Trụ sở Huyện ủy, HĐND, UBND huyện Vân Đồn",
      "longitude": 107.473,
      "latitude": 21.1584,
      "beforeMerger": "Thị trấn Cái Rồng, Xã Bản Sen, Xã Bình Dân, Xã Đài Xuyên, Xã Đoàn Kết, Xã Đông Xá, Xã Hạ Long, Xã Minh Châu, Xã Ngọc Vừng, Xã Quan Lạn, Xã Thắng Lợi, Xã Vạn Yên",
      "wardCode": 3314
    },
    {
      "id": 781,
      "code": "0781",
      "name": "Vàng Danh",
      "type": "phường",
      "area": 93.77,
      "population": 38864,
      "adminCenter": "Trụ sở Đảng ủy, HĐND, UBND phường Trưng Vương",
      "longitude": 106.81,
      "latitude": 21.0869,
      "beforeMerger": "Phường Bắc Sơn, Phường Nam Khê, Phường Vàng Danh, Phường Trưng Vương",
      "wardCode": 1882
    },
    {
      "id": 782,
      "code": "0782",
      "name": "Việt Hưng",
      "type": "phường",
      "area": 41.39,
      "population": 51787,
      "adminCenter": "Trụ sở Đảng ủy, HĐND, UBND phường Giếng Đáy",
      "longitude": 106.98,
      "latitude": 20.9903,
      "beforeMerger": "Phường Giếng Đáy, Phường Việt Hưng, Phường Hà Khẩu",
      "wardCode": 1878
    },
    {
      "id": 783,
      "code": "0783",
      "name": "Vĩnh Thực",
      "type": "xã",
      "area": 49.11,
      "population": 5407,
      "adminCenter": "Trụ sở Đảng ủy, HĐND, UBND xã Vĩnh Thực",
      "longitude": 107.917,
      "latitude": 21.3736,
      "beforeMerger": "Xã Vĩnh Trung, Xã Vĩnh Thực",
      "wardCode": 3316
    },
    {
      "id": 784,
      "code": "0784",
      "name": "Yên Tử",
      "type": "phường",
      "area": 113.23,
      "population": 38932,
      "adminCenter": "Trụ sở Ban Quản lý Di tích và Rừng quốc gia Yên Tử",
      "longitude": 106.756,
      "latitude": 21.1161,
      "beforeMerger": "Phường Phương Đông, Phường Phương Nam, Xã Thượng Yên Công",
      "wardCode": 1873
    }
  ]
}