{
  "provinceId": 7,
  "provinceName": "tỉnh Sơn La",
  "mahc": 15,
  "wards": [
    {
      "id": 129,
      "code": "0129",
      "name": "Bạch Đằng",
      "type": "xã",
      "area": 141.61,
      "population": 4808,
      "adminCenter": "Trụ sở UBND xã Bạch Đằng",
      "longitude": 106.159,
      "latitude": 22.59,
      "beforeMerger": "Xã Thịnh Vượng, Xã Bình Dương, Xã Bạch Đằng",
      "wardCode": 1251
    },
    {
      "id": 130,
      "code": "0130",
      "name": "Bảo Lạc",
      "type": "xã",
      "area": 118.7,
      "population": 10889,
      "adminCenter": "Văn phòng HĐND, UBND huyện Bảo Lạc",
      "longitude": 105.633,
      "latitude": 22.9448,
      "beforeMerger": "Thị trấn Bảo Lạc, Xã Bảo Toàn, Xã Hồng Trị",
      "wardCode": 1233
    },
    {
      "id": 131,
      "code": "0131",
      "name": "Bảo Lâm",
      "type": "xã",
      "area": 161.82,
      "population": 14198,
      "adminCenter": "Trụ sở Văn phòng HĐND, UBND huyện Bảo Lâm và trụ sở Ban quản lý dự án Đầu tư và Xây dựng huyện Bảo Lâm",
      "longitude": 105.545,
      "latitude": 22.8214,
      "beforeMerger": "Thị trấn Pác Miầu, Xã Mông Ân, Xã Vĩnh Phong",
      "wardCode": 1225
    },
    {
      "id": 132,
      "code": "0132",
      "name": "Bế Văn Đàn",
      "type": "xã",
      "area": 118.31,
      "population": 10253,
      "adminCenter": "Trụ sở UBND xã Cách Linh",
      "longitude": 106.541,
      "latitude": 22.6125,
      "beforeMerger": "Xã Hồng Quang, Xã Cách Linh, Xã Bế Văn Đàn",
      "wardCode": 684
    },
    {
      "id": 133,
      "code": "0133",
      "name": "Ca Thành",
      "type": "xã",
      "area": 109.85,
      "population": 4684,
      "adminCenter": "Trụ sở UBND xã Ca Thành",
      "longitude": 105.829,
      "latitude": 22.7238,
      "beforeMerger": "Xã Yên Lạc, Xã Ca Thành",
      "wardCode": 1241
    },
    {
      "id": 134,
      "code": "0134",
      "name": "Cần Yên",
      "type": "xã",
      "area": 144.64,
      "population": 10375,
      "adminCenter": "Trụ sở UBND xã Lương Thông",
      "longitude": 105.926,
      "latitude": 22.8831,
      "beforeMerger": "Xã Cần Nông, Xã Lương Thông, Xã Cần Yên",
      "wardCode": 1255
    },
    {
      "id": 135,
      "code": "0135",
      "name": "Canh Tân",
      "type": "xã",
      "area": 132.36,
      "population": 4513,
      "adminCenter": "Trụ sở UBND xã Canh Tân",
      "longitude": 106.269,
      "latitude": 22.5093,
      "beforeMerger": "Xã Đức Thông, Xã Canh Tân",
      "wardCode": 1217
    },
    {
      "id": 136,
      "code": "0136",
      "name": "Cô Ba",
      "type": "xã",
      "area": 134.52,
      "population": 8397,
      "adminCenter": "Trụ sở UBND xã Thượng Hà (trụ sở cũ xóm Phiêng Sinh)",
      "longitude": 105.714,
      "latitude": 22.9994,
      "beforeMerger": "Xã Thượng Hà, Xã Cô Ba",
      "wardCode": 658
    },
    {
      "id": 137,
      "code": "0137",
      "name": "Cốc Pàng",
      "type": "xã",
      "area": 170.28,
      "population": 10134,
      "adminCenter": "Trụ sở UBND xã Cốc Pàng và trụ sở UBND xã Đức Hạnh",
      "longitude": 105.577,
      "latitude": 23.0393,
      "beforeMerger": "Xã Đức Hạnh, Xã Cốc Pàng",
      "wardCode": 1240
    },
    {
      "id": 138,
      "code": "0138",
      "name": "Đàm Thủy",
      "type": "xã",
      "area": 114.63,
      "population": 12281,
      "adminCenter": "Trụ sở UBND xã Chí Viễn (trụ sở mới)",
      "longitude": 106.651,
      "latitude": 22.8332,
      "beforeMerger": "Xã Chí Viễn, Xã Phong Châu, Xã Đàm Thủy",
      "wardCode": 685
    },
    {
      "id": 139,
      "code": "0139",
      "name": "Đình Phong",
      "type": "xã",
      "area": 113.77,
      "population": 10778,
      "adminCenter": "Trụ sở UBND xã Đình Phong (trụ sở mới)",
      "longitude": 106.566,
      "latitude": 22.8904,
      "beforeMerger": "Xã Ngọc Côn, Xã Ngọc Khê, Xã Phong Nặm, Xã Đình Phong",
      "wardCode": 711
    },
    {
      "id": 140,
      "code": "0140",
      "name": "Đoài Dương",
      "type": "xã",
      "area": 114.48,
      "population": 12536,
      "adminCenter": "Trụ sở UBND xã Đoài Dương (trụ sở mới)",
      "longitude": 106.503,
      "latitude": 22.7565,
      "beforeMerger": "Xã Trung Phúc, Xã Cao Thăng, Xã Đoài Dương",
      "wardCode": 717
    },
    {
      "id": 141,
      "code": "0141",
      "name": "Độc Lập",
      "type": "xã",
      "area": 102.21,
      "population": 8400,
      "adminCenter": "Trụ sở UBND xã Độc Lập (trụ sở mới)",
      "longitude": 106.5,
      "latitude": 22.7084,
      "beforeMerger": "Xã Quảng Hưng, Xã Cai Bộ, Xã Độc Lập",
      "wardCode": 675
    },
    {
      "id": 142,
      "code": "0142",
      "name": "Đông Khê",
      "type": "xã",
      "area": 125.27,
      "population": 9099,
      "adminCenter": "Trụ sở Văn phòng HĐND, UBND huyện Thạch An",
      "longitude": 106.358,
      "latitude": 22.4136,
      "beforeMerger": "Thị trấn Đông Khê, Xã Đức Xuân, Xã Trọng Con",
      "wardCode": 677
    },
    {
      "id": 143,
      "code": "0143",
      "name": "Đức Long",
      "type": "xã",
      "area": 106.93,
      "population": 5236,
      "adminCenter": "Trụ sở UBND xã Đức Long",
      "longitude": 106.495,
      "latitude": 22.445,
      "beforeMerger": "Xã Đức Long (huyện Thạch An), Xã Thụy Hùng, Xã Lê Lợi",
      "wardCode": 676
    },
    {
      "id": 144,
      "code": "0144",
      "name": "Hạ Lang",
      "type": "xã",
      "area": 81.13,
      "population": 8091,
      "adminCenter": "Trụ sở HĐND và UBND huyện Hạ Lang",
      "longitude": 106.691,
      "latitude": 22.6132,
      "beforeMerger": "Thị trấn Thanh Nhật, Xã Thống Nhất, Xã Thị Hoa",
      "wardCode": 691
    },
    {
      "id": 145,
      "code": "0145",
      "name": "Hà Quảng",
      "type": "xã",
      "area": 112.25,
      "population": 10997,
      "adminCenter": "Trụ sở UBND xã Ngọc Đào",
      "longitude": 106.16,
      "latitude": 22.8513,
      "beforeMerger": "Xã Hồng Sỹ, Xã Ngọc Đào, Xã Mã Ba",
      "wardCode": 1254
    },
    {
      "id": 146,
      "code": "0146",
      "name": "Hạnh Phúc",
      "type": "xã",
      "area": 126.78,
      "population": 15009,
      "adminCenter": "Trụ sở UBND xã Ngọc Động",
      "longitude": 106.412,
      "latitude": 22.6235,
      "beforeMerger": "Xã Ngọc Động (huyện Quảng Hòa), Xã Tự Do, Xã Hạnh Phúc",
      "wardCode": 718
    },
    {
      "id": 147,
      "code": "0147",
      "name": "Hòa An",
      "type": "xã",
      "area": 97.03,
      "population": 20329,
      "adminCenter": "đang cập nhật",
      "longitude": 106.181,
      "latitude": 22.7503,
      "beforeMerger": "Thị trấn Nước Hai, Xã Đại Tiến, Xã Hồng Việt",
      "wardCode": 1249
    },
    {
      "id": 148,
      "code": "0148",
      "name": "Hưng Đạo",
      "type": "xã",
      "area": 122.43,
      "population": 9354,
      "adminCenter": "Trụ sở UBND xã Hưng Đạo",
      "longitude": 105.675,
      "latitude": 22.8345,
      "beforeMerger": "Xã Hưng Thịnh, Xã Kim Cúc, Xã Hưng Đạo (huyện Bảo Lạc)",
      "wardCode": 1238
    },
    {
      "id": 149,
      "code": "0149",
      "name": "Huy Giáp",
      "type": "xã",
      "area": 133.76,
      "population": 7373,
      "adminCenter": "Trụ sở UBND xã Huy Giáp",
      "longitude": 105.777,
      "latitude": 22.791,
      "beforeMerger": "Xã Đình Phùng, Xã Huy Giáp",
      "wardCode": 1244
    },
    {
      "id": 150,
      "code": "0150",
      "name": "Khánh Xuân",
      "type": "xã",
      "area": 109.96,
      "population": 6563,
      "adminCenter": "Trụ sở UBND xã Khánh Xuân",
      "longitude": 105.76,
      "latitude": 22.9038,
      "beforeMerger": "Xã Phan Thanh (huyện Bảo Lạc), Xã Khánh Xuân",
      "wardCode": 1246
    },
    {
      "id": 151,
      "code": "0151",
      "name": "Kim Đồng",
      "type": "xã",
      "area": 112.06,
      "population": 6056,
      "adminCenter": "Trụ sở UBND xã Kim Đồng cũ",
      "longitude": 106.345,
      "latitude": 22.5328,
      "beforeMerger": "Xã Hồng Nam, Xã Thái Cường, Xã Kim Đồng",
      "wardCode": 1218
    },
    {
      "id": 152,
      "code": "0152",
      "name": "Lũng Nặm",
      "type": "xã",
      "area": 97.59,
      "population": 7221,
      "adminCenter": "Trụ sở UBND xã Lũng Nặm",
      "longitude": 106.115,
      "latitude": 22.9158,
      "beforeMerger": "Xã Thượng Thôn, Xã Lũng Nặm",
      "wardCode": 1257
    },
    {
      "id": 153,
      "code": "0153",
      "name": "Lý Bôn",
      "type": "xã",
      "area": 173.25,
      "population": 11807,
      "adminCenter": "Trụ sở UBND xã Lý Bôn",
      "longitude": 105.531,
      "latitude": 22.9301,
      "beforeMerger": "Xã Vĩnh Quang (huyện Bảo Lâm), Xã Lý Bôn",
      "wardCode": 1226
    },
    {
      "id": 154,
      "code": "0154",
      "name": "Lý Quốc",
      "type": "xã",
      "area": 102.18,
      "population": 5966,
      "adminCenter": "Trụ sở UBND xã Lý Quốc",
      "longitude": 106.735,
      "latitude": 22.7947,
      "beforeMerger": "Xã Minh Long, Xã Đồng Loan, Xã Lý Quốc",
      "wardCode": 713
    },
    {
      "id": 155,
      "code": "0155",
      "name": "Minh Khai",
      "type": "xã",
      "area": 173.4,
      "population": 4437,
      "adminCenter": "Trụ sở UBND xã Quang Trọng",
      "longitude": 106.171,
      "latitude": 22.4697,
      "beforeMerger": "Xã Quang Trọng, Xã Minh Khai",
      "wardCode": 1219
    },
    {
      "id": 156,
      "code": "0156",
      "name": "Minh Tâm",
      "type": "xã",
      "area": 106.64,
      "population": 8182,
      "adminCenter": "Trụ sở UBND xã Minh Tâm",
      "longitude": 106.078,
      "latitude": 22.6953,
      "beforeMerger": "Xã Trương Lương, Xã Minh Tâm",
      "wardCode": 1223
    },
    {
      "id": 157,
      "code": "0157",
      "name": "Nam Quang",
      "type": "xã",
      "area": 148.16,
      "population": 10140,
      "adminCenter": "Trụ sở UBND xã Nam Quang",
      "longitude": 105.433,
      "latitude": 22.9159,
      "beforeMerger": "Xã Nam Cao, Xã Nam Quang",
      "wardCode": 1227
    },
    {
      "id": 158,
      "code": "0158",
      "name": "Nam Tuấn",
      "type": "xã",
      "area": 119.66,
      "population": 16310,
      "adminCenter": "Trụ sở UBND xã Nam Tuấn",
      "longitude": 106.106,
      "latitude": 22.7807,
      "beforeMerger": "Xã Đức Long (huyện Hòa An), Xã Dân Chủ, Xã Nam Tuấn",
      "wardCode": 1248
    },
    {
      "id": 159,
      "code": "0159",
      "name": "Nguyên Bình",
      "type": "xã",
      "area": 99.73,
      "population": 9278,
      "adminCenter": "Trụ sở Huyện ủy, HĐND, UBND huyện Nguyên Bình",
      "longitude": 105.983,
      "latitude": 22.6641,
      "beforeMerger": "Thị trấn Nguyên Bình, Xã Thể Dục, Xã Vũ Minh",
      "wardCode": 1221
    },
    {
      "id": 160,
      "code": "0160",
      "name": "Nguyễn Huệ",
      "type": "xã",
      "area": 146.8,
      "population": 9349,
      "adminCenter": "Trụ sở UBND xã Nguyễn Huệ",
      "longitude": 106.297,
      "latitude": 22.6961,
      "beforeMerger": "Xã Quang Trung (huyện Hòa An), Xã Ngũ Lão, Xã Nguyễn Huệ",
      "wardCode": 1250
    },
    {
      "id": 161,
      "code": "0161",
      "name": "Nùng Trí Cao",
      "type": "phường",
      "area": 29.31,
      "population": 19507,
      "adminCenter": "Trụ sở UBND phường Sông Bằng",
      "longitude": 106.24,
      "latitude": 22.697,
      "beforeMerger": "Phường Ngọc Xuân, Phường Sông Bằng, Xã Vĩnh Quang (thành phố Cao Bằng)",
      "wardCode": 1230
    },
    {
      "id": 162,
      "code": "0162",
      "name": "Phan Thanh",
      "type": "xã",
      "area": 138.09,
      "population": 6647,
      "adminCenter": "Trụ sở UBND xã Phan Thanh",
      "longitude": 105.8,
      "latitude": 22.6142,
      "beforeMerger": "Xã Phan Thanh (huyện Nguyên Bình), Xã Mai Long",
      "wardCode": 1242
    },
    {
      "id": 163,
      "code": "0163",
      "name": "Phục Hòa",
      "type": "xã",
      "area": 122.7,
      "population": 14339,
      "adminCenter": "đang cập nhật",
      "longitude": 106.531,
      "latitude": 22.5269,
      "beforeMerger": "Thị trấn Tà Lùng, Thị trấn Hòa Thuận, Xã Mỹ Hưng, Xã Đại Sơn",
      "wardCode": 683
    },
    {
      "id": 164,
      "code": "0164",
      "name": "Quang Hán",
      "type": "xã",
      "area": 93.61,
      "population": 6918,
      "adminCenter": "Trụ sở UBND xã Quang Hán",
      "longitude": 106.265,
      "latitude": 22.835,
      "beforeMerger": "Xã Quang Vinh, Xã Quang Hán",
      "wardCode": 714
    },
    {
      "id": 165,
      "code": "0165",
      "name": "Quảng Lâm",
      "type": "xã",
      "area": 172.93,
      "population": 15245,
      "adminCenter": "Trụ sở UBND xã Thạch Lâm",
      "longitude": 105.377,
      "latitude": 22.8561,
      "beforeMerger": "Xã Thạch Lâm, Xã Quảng Lâm",
      "wardCode": 1232
    },
    {
      "id": 166,
      "code": "0166",
      "name": "Quang Long",
      "type": "xã",
      "area": 130.15,
      "population": 5758,
      "adminCenter": "Trụ sở UBND xã Đức Quang (trụ sở mới)",
      "longitude": 106.692,
      "latitude": 22.7373,
      "beforeMerger": "Xã Đức Quang, Xã Thắng Lợi, Xã Quang Long",
      "wardCode": 712
    },
    {
      "id": 167,
      "code": "0167",
      "name": "Quang Trung",
      "type": "xã",
      "area": 82.6,
      "population": 5975,
      "adminCenter": "Trụ sở UBND xã Quang Trung",
      "longitude": 106.389,
      "latitude": 22.8355,
      "beforeMerger": "Xã Quang Trung (huyện Trùng Khánh), Xã Tri Phương, Xã Xuân Nội",
      "wardCode": 715
    },
    {
      "id": 168,
      "code": "0168",
      "name": "Quảng Uyên",
      "type": "xã",
      "area": 128.05,
      "population": 16589,
      "adminCenter": "Trụ sở Văn phòng HĐND, UBND huyện Quảng Hoà",
      "longitude": 106.416,
      "latitude": 22.7143,
      "beforeMerger": "Thị trấn Quảng Uyên, Xã Phi Hải, Xã Phúc Sen, Xã Chí Thảo",
      "wardCode": 674
    },
    {
      "id": 169,
      "code": "0169",
      "name": "Sơn Lộ",
      "type": "xã",
      "area": 97.38,
      "population": 5578,
      "adminCenter": "Trụ sở UBND xã Sơn Lộ",
      "longitude": 105.652,
      "latitude": 22.7344,
      "beforeMerger": "Xã Sơn Lập, Xã Sơn Lộ",
      "wardCode": 1239
    },
    {
      "id": 170,
      "code": "0170",
      "name": "Tam Kim",
      "type": "xã",
      "area": 161.81,
      "population": 5864,
      "adminCenter": "Trụ sở UBND xã Tam Kim",
      "longitude": 106.02,
      "latitude": 22.5958,
      "beforeMerger": "Xã Hưng Đạo (huyện Nguyên Bình), Xã Hoa Thám, Xã Tam Kim",
      "wardCode": 1224
    },
    {
      "id": 171,
      "code": "0171",
      "name": "Tân Giang",
      "type": "phường",
      "area": 84.26,
      "population": 18204,
      "adminCenter": "Trụ sở UBND phường Hoà Chung và Trường Trung cấp y (cũ), phường Tân Giang",
      "longitude": 106.276,
      "latitude": 22.615,
      "beforeMerger": "Phường Tân Giang, Phường Duyệt Trung, Phường Hòa Chung, Xã Chu Trinh, Xã Lê Chung",
      "wardCode": 1231
    },
    {
      "id": 172,
      "code": "0172",
      "name": "Thạch An",
      "type": "xã",
      "area": 113.74,
      "population": 7589,
      "adminCenter": "Trụ sở UBND xã Vân Trình",
      "longitude": 106.423,
      "latitude": 22.4985,
      "beforeMerger": "Xã Tiên Thành, Xã Vân Trình, Xã Lê Lai",
      "wardCode": 1258
    },
    {
      "id": 173,
      "code": "0173",
      "name": "Thành Công",
      "type": "xã",
      "area": 140.63,
      "population": 5138,
      "adminCenter": "Trụ sở UBND xã Thành Công (trụ sở mới)",
      "longitude": 105.895,
      "latitude": 22.5733,
      "beforeMerger": "Xã Quang Thành, Xã Thành Công",
      "wardCode": 1243
    },
    {
      "id": 174,
      "code": "0174",
      "name": "Thanh Long",
      "type": "xã",
      "area": 118.62,
      "population": 8182,
      "adminCenter": "Trụ sở UBND xã Thanh Long",
      "longitude": 105.978,
      "latitude": 22.7219,
      "beforeMerger": "Xã Ngọc Động (huyện Hà Quảng), Xã Yên Sơn, Xã Thanh Long",
      "wardCode": 1220
    },
    {
      "id": 175,
      "code": "0175",
      "name": "Thông Nông",
      "type": "xã",
      "area": 94.29,
      "population": 9458,
      "adminCenter": "Trụ sở UBND thị trấn Thông Nông",
      "longitude": 105.994,
      "latitude": 22.7925,
      "beforeMerger": "Thị trấn Thông Nông, Xã Đa Thông, Xã Lương Can",
      "wardCode": 1253
    },
    {
      "id": 176,
      "code": "0176",
      "name": "Thục Phán",
      "type": "phường",
      "area": 55.44,
      "population": 41157,
      "adminCenter": "Trụ sở Thành uỷ, HĐND và UBND TP Cao Bằng",
      "longitude": 106.189,
      "latitude": 22.6783,
      "beforeMerger": "Phường Sông Hiến, Phường Đề Thám, Phường Hợp Giang, Xã Hưng Đạo (thành phố Cao Bằng), Xã Hoàng Tung",
      "wardCode": 1229
    },
    {
      "id": 177,
      "code": "0177",
      "name": "Tĩnh Túc",
      "type": "xã",
      "area": 86.79,
      "population": 5850,
      "adminCenter": "Trụ sở UBND thị trấn Tĩnh Túc",
      "longitude": 105.889,
      "latitude": 22.6891,
      "beforeMerger": "Thị trấn Tĩnh Túc, Xã Triệu Nguyên, Xã Vũ Nông",
      "wardCode": 1222
    },
    {
      "id": 178,
      "code": "0178",
      "name": "Tổng Cọt",
      "type": "xã",
      "area": 100.48,
      "population": 6854,
      "adminCenter": "Trụ sở UBND xã Tổng Cọt",
      "longitude": 106.19,
      "latitude": 22.9418,
      "beforeMerger": "Xã Nội Thôn, Xã Cải Viên, Xã Tổng Cọt",
      "wardCode": 1252
    },
    {
      "id": 179,
      "code": "0179",
      "name": "Trà Lĩnh",
      "type": "xã",
      "area": 74.97,
      "population": 10805,
      "adminCenter": "Trụ sở UBND huyện Trùng Khánh (trụ sở cũ UBND huyện Trà Lĩnh)",
      "longitude": 106.328,
      "latitude": 22.784,
      "beforeMerger": "Thị trấn Trà Lĩnh, Xã Cao Chương, Xã Quốc Toản",
      "wardCode": 719
    },
    {
      "id": 180,
      "code": "0180",
      "name": "Trùng Khánh",
      "type": "xã",
      "area": 125.5,
      "population": 17849,
      "adminCenter": "Trụ sở UBND huyện Trùng Khánh",
      "longitude": 106.496,
      "latitude": 22.8405,
      "beforeMerger": "Thị trấn Trùng Khánh, Xã Đức Hồng, Xã Lăng Hiếu, Xã Khâm Thành",
      "wardCode": 716
    },
    {
      "id": 181,
      "code": "0181",
      "name": "Trường Hà",
      "type": "xã",
      "area": 143.3,
      "population": 12736,
      "adminCenter": "Trụ sở Văn phòng HĐND & UBND huyện Hà Quảng",
      "longitude": 106.029,
      "latitude": 22.9119,
      "beforeMerger": "Thị trấn Xuân Hòa, Xã Quý Quân, Xã Sóc Hà, Xã Trường Hà",
      "wardCode": 1256
    },
    {
      "id": 182,
      "code": "0182",
      "name": "Vinh Quý",
      "type": "xã",
      "area": 143.05,
      "population": 6920,
      "adminCenter": "Trụ sở UBND xã Vinh Quý",
      "longitude": 106.619,
      "latitude": 22.6786,
      "beforeMerger": "Xã Cô Ngân, Xã An Lạc, Xã Kim Loan, Xã Vinh Quý",
      "wardCode": 692
    },
    {
      "id": 183,
      "code": "0183",
      "name": "Xuân Trường",
      "type": "xã",
      "area": 122.92,
      "population": 5669,
      "adminCenter": "Trụ sở UBND xã Xuân Trường",
      "longitude": 105.828,
      "latitude": 22.8909,
      "beforeMerger": "Xã Hồng An, Xã Xuân Trường",
      "wardCode": 1245
    },
    {
      "id": 184,
      "code": "0184",
      "name": "Yên Thổ",
      "type": "xã",
      "area": 167.67,
      "population": 12810,
      "adminCenter": "Trụ sở UBND xã Thái Học",
      "longitude": 105.539,
      "latitude": 22.7231,
      "beforeMerger": "Xã Thái Học, Xã Thái Sơn, Xã Yên Thổ",
      "wardCode": 1228
    }
  ]
}