{
  "provinceId": 12,
  "provinceName": "tỉnh Bắc Ninh",
  "mahc": 2,
  "wards": [
    {
      "id": 786,
      "code": "0786",
      "name": "An Bình",
      "type": "xã",
      "area": 127.41,
      "population": 18952,
      "adminCenter": "Trụ sở xã Thống Nhất cũ",
      "longitude": 105.704,
      "latitude": 20.4758,
      "beforeMerger": "Xã Hưng Thi, Xã Thống Nhất, Xã An Bình",
      "wardCode": 1689
    },
    {
      "id": 787,
      "code": "0787",
      "name": "An Nghĩa",
      "type": "xã",
      "area": 95.73,
      "population": 27556,
      "adminCenter": "Trụ sở xã Phú Nghĩa cũ",
      "longitude": 105.712,
      "latitude": 20.5722,
      "beforeMerger": "Thị trấn Ba Hàng Đồi, Xã Phú Nghĩa, Xã Phú Thành",
      "wardCode": 1660
    },
    {
      "id": 788,
      "code": "0788",
      "name": "Âu Cơ",
      "type": "phường",
      "area": 12.51,
      "population": 18951,
      "adminCenter": "Số 64 Bạch Đằng, phường Âu Cơ, tỉnh Phú Thọ (Trụ sở UBND thị xã Phú Thọ cũ)",
      "longitude": 105.201,
      "latitude": 21.394,
      "beforeMerger": "Phường Thanh Vinh, Phường Âu Cơ, Xã Thanh Minh",
      "wardCode": 1580
    },
    {
      "id": 789,
      "code": "0789",
      "name": "Bản Nguyên",
      "type": "xã",
      "area": 28.29,
      "population": 33667,
      "adminCenter": "Trụ sở xã Cao Xá",
      "longitude": 105.34,
      "latitude": 21.281,
      "beforeMerger": "Xã Cao Xá, Xã Vĩnh Lại, Xã Bản Nguyên",
      "wardCode": 1586
    },
    {
      "id": 790,
      "code": "0790",
      "name": "Bằng Luân",
      "type": "xã",
      "area": 59.77,
      "population": 16932,
      "adminCenter": "Trụ sở UBND xã Bằng Doãn cũ",
      "longitude": 105.063,
      "latitude": 21.6467,
      "beforeMerger": "Xã Bằng Doãn, Xã Phúc Lai, Xã Bằng Luân",
      "wardCode": 1556
    },
    {
      "id": 791,
      "code": "0791",
      "name": "Bao La",
      "type": "xã",
      "area": 104.27,
      "population": 12409,
      "adminCenter": "Trụ sở UBND xã Bao La",
      "longitude": 104.977,
      "latitude": 20.6491,
      "beforeMerger": "Xã Mai Hịch, Xã Xăm Khòe, Xã Bao La",
      "wardCode": 1701
    },
    {
      "id": 792,
      "code": "0792",
      "name": "Bình Nguyên",
      "type": "xã",
      "area": 30.6,
      "population": 46425,
      "adminCenter": "DT305, xã Bình Nguyên, tỉnh Phú Thọ (Trụ sở UBND huyện Bình Xuyên cũ)",
      "longitude": 105.66,
      "latitude": 21.278,
      "beforeMerger": "Thị trấn Hương Canh, Xã Tam Hợp, Xã Quất Lưu, Xã Sơn Lôi",
      "wardCode": 1643
    },
    {
      "id": 793,
      "code": "0793",
      "name": "Bình Phú",
      "type": "xã",
      "area": 28.28,
      "population": 29649,
      "adminCenter": "Trụ sở UBND xã Bình Phú",
      "longitude": 105.367,
      "latitude": 21.4133,
      "beforeMerger": "Xã Tiên Du, Xã An Đạo, Xã Bình Phú",
      "wardCode": 1604
    },
    {
      "id": 794,
      "code": "0794",
      "name": "Bình Tuyền",
      "type": "xã",
      "area": 58.5,
      "population": 29926,
      "adminCenter": "Trụ sở thị trấn Bá Hiến cũ",
      "longitude": 105.692,
      "latitude": 21.3725,
      "beforeMerger": "Thị trấn Bá Hiến, Xã Trung Mỹ",
      "wardCode": 1642
    },
    {
      "id": 795,
      "code": "0795",
      "name": "Bình Xuyên",
      "type": "xã",
      "area": 29.5,
      "population": 32534,
      "adminCenter": "Thôn Chân Sơn, xã Bình Xuyên, tỉnh Phú Thọ (Trụ sở xã Hương Sơn cũ)",
      "longitude": 105.648,
      "latitude": 21.3224,
      "beforeMerger": "Thị trấn Gia Khánh, Xã Hương Sơn, Xã Thiện Kế",
      "wardCode": 1641
    },
    {
      "id": 796,
      "code": "0796",
      "name": "Cẩm Khê",
      "type": "xã",
      "area": 50.44,
      "population": 47059,
      "adminCenter": "Trụ sở Huyện ủy Cẩm Khê cũ",
      "longitude": 105.096,
      "latitude": 21.4291,
      "beforeMerger": "Thị trấn Cẩm Khê, Xã Minh Tân, Xã Phong Thịnh",
      "wardCode": 1579
    },
    {
      "id": 797,
      "code": "0797",
      "name": "Cao Dương",
      "type": "xã",
      "area": 113.38,
      "population": 36783,
      "adminCenter": "Trụ sở UBND xã Thanh Cao cũ",
      "longitude": 105.634,
      "latitude": 20.6962,
      "beforeMerger": "Xã Thanh Cao, Xã Thanh Sơn, Xã Cao Dương",
      "wardCode": 1662
    },
    {
      "id": 798,
      "code": "0798",
      "name": "Cao Phong",
      "type": "xã",
      "area": 77.76,
      "population": 20327,
      "adminCenter": "Khu 2, xã Cao Phong (trụ sở HĐND - UBND huyện Cao Phong cũ)",
      "longitude": 105.362,
      "latitude": 20.7017,
      "beforeMerger": "Thị trấn Cao Phong, Xã Hợp Phong, Xã Thu Phong",
      "wardCode": 1671
    },
    {
      "id": 799,
      "code": "0799",
      "name": "Cao Sơn",
      "type": "xã",
      "area": 124.93,
      "population": 8872,
      "adminCenter": "Trụ sở chính đặt tại xã Cao Sơn, sử dụng trụ sở xã Tân Minh",
      "longitude": 105.152,
      "latitude": 20.8921,
      "beforeMerger": "Xã Tân Minh, Xã Cao Sơn (huyện Đà Bắc)",
      "wardCode": 1691
    },
    {
      "id": 800,
      "code": "0800",
      "name": "Chân Mộng",
      "type": "xã",
      "area": 89.85,
      "population": 38565,
      "adminCenter": "Trụ sở UBND xã Tiêu Sơn cũ",
      "longitude": 105.211,
      "latitude": 21.5603,
      "beforeMerger": "Xã Hùng Long, Xã Yên Kiện, Xã Chân Mộng",
      "wardCode": 1559
    },
    {
      "id": 801,
      "code": "0801",
      "name": "Chí Đám",
      "type": "xã",
      "area": 49.36,
      "population": 28005,
      "adminCenter": "Trụ sở UBND xã Chí Đám trước sáp nhập",
      "longitude": 105.161,
      "latitude": 21.6724,
      "beforeMerger": "Xã Hùng Xuyên, Xã Chí Đám",
      "wardCode": 1557
    },
    {
      "id": 802,
      "code": "0802",
      "name": "Chí Tiên",
      "type": "xã",
      "area": 23.75,
      "population": 17550,
      "adminCenter": "Trụ sở UBND xã Thanh Hà cũ",
      "longitude": 105.164,
      "latitude": 21.4234,
      "beforeMerger": "Xã Sơn Cương, Xã Thanh Hà, Xã Chí Tiên",
      "wardCode": 1593
    },
    {
      "id": 803,
      "code": "0803",
      "name": "Cự Đồng",
      "type": "xã",
      "area": 45.77,
      "population": 14988,
      "adminCenter": "Trụ sở xã Cự Đồng",
      "longitude": 105.238,
      "latitude": 21.1086,
      "beforeMerger": "Xã Tất Thắng, Xã Thắng Sơn, Xã Cự Đồng",
      "wardCode": 1591
    },
    {
      "id": 804,
      "code": "0804",
      "name": "Đà Bắc",
      "type": "xã",
      "area": 136.8,
      "population": 19834,
      "adminCenter": "Trụ sở UBND huyện Đà Bắc cũ",
      "longitude": 105.251,
      "latitude": 20.8729,
      "beforeMerger": "Thị trấn Đà Bắc, Xã Hiền Lương (huyện Đà Bắc), Xã Toàn Sơn, Xã Tú Lý",
      "wardCode": 1695
    },
    {
      "id": 805,
      "code": "0805",
      "name": "Đại Đình",
      "type": "xã",
      "area": 44,
      "population": 20551,
      "adminCenter": "Trại Mới, xã Đại Đình, tỉnh Phú Thọ (Trụ sở xã Đại Đình)",
      "longitude": 105.577,
      "latitude": 21.4615,
      "beforeMerger": "Thị trấn Đại Đình, Xã Bồ Lý",
      "wardCode": 1640
    },
    {
      "id": 806,
      "code": "0806",
      "name": "Đại Đồng",
      "type": "xã",
      "area": 81.37,
      "population": 24353,
      "adminCenter": "Trụ sở xã Ân Nghĩa cũ",
      "longitude": 105.504,
      "latitude": 20.4045,
      "beforeMerger": "Xã Ân Nghĩa, Xã Tân Mỹ, Xã Yên Nghiệp",
      "wardCode": 1686
    },
    {
      "id": 807,
      "code": "0807",
      "name": "Dân Chủ",
      "type": "xã",
      "area": 29.85,
      "population": 18568,
      "adminCenter": "Trụ sở UBND xã Trị Quận cũ",
      "longitude": 105.311,
      "latitude": 21.4714,
      "beforeMerger": "Xã Bảo Thanh, Xã Trị Quận, Xã Hạ Giáp, Xã Gia Thanh",
      "wardCode": 1568
    },
    {
      "id": 808,
      "code": "0808",
      "name": "Đan Thượng",
      "type": "xã",
      "area": 84.15,
      "population": 28838,
      "adminCenter": "Khu 8, xã Đan Thượng, tỉnh Phú Thọ (Trụ sở UBND xã Tứ Hiệp cũ)",
      "longitude": 104.981,
      "latitude": 21.6314,
      "beforeMerger": "Xã Tứ Hiệp, Xã Đại Phạm, Xã Hà Lương, Xã Đan Thượng",
      "wardCode": 1615
    },
    {
      "id": 809,
      "code": "0809",
      "name": "Đạo Trù",
      "type": "xã",
      "area": 83.8,
      "population": 24759,
      "adminCenter": "Trụ sở xã Đạo Trù",
      "longitude": 105.553,
      "latitude": 21.5163,
      "beforeMerger": "Xã Yên Dương, Xã Đạo Trù",
      "wardCode": 1639
    },
    {
      "id": 810,
      "code": "0810",
      "name": "Đào Xá",
      "type": "xã",
      "area": 45.53,
      "population": 32156,
      "adminCenter": "Trụ sở xã Đào Xá",
      "longitude": 105.288,
      "latitude": 21.2116,
      "beforeMerger": "Xã Xuân Lộc, Xã Thạch Đồng, Xã Tân Phương, Xã Đào Xá",
      "wardCode": 1583
    },
    {
      "id": 811,
      "code": "0811",
      "name": "Đoan Hùng",
      "type": "xã",
      "area": 44.8,
      "population": 30.509,
      "adminCenter": "Ngõ 592 đường Đồng Tâm, xã Đoan Hùng, tỉnh Phú Thọ (Trụ sở UBND Huyện Đoan Hùng cũ)",
      "longitude": 105.188,
      "latitude": 21.6163,
      "beforeMerger": "Thị trấn Đoan Hùng, Xã Hợp Nhất, Xã Ngọc Quan",
      "wardCode": 1555
    },
    {
      "id": 812,
      "code": "0812",
      "name": "Đồng Lương",
      "type": "xã",
      "area": 36.33,
      "population": 15904,
      "adminCenter": "Trụ sở UBND xã Điêu Lương cũ",
      "longitude": 105.162,
      "latitude": 21.3135,
      "beforeMerger": "Xã Điêu Lương, Xã Yên Dưỡng, Xã Đồng Lương",
      "wardCode": 1600
    },
    {
      "id": 813,
      "code": "0813",
      "name": "Đông Thành",
      "type": "xã",
      "area": 32.25,
      "population": 20383,
      "adminCenter": "Trụ sở UBND xã Khải Xuân cũ",
      "longitude": 105.197,
      "latitude": 21.4561,
      "beforeMerger": "Xã Khải Xuân, Xã Võ Lao, Xã Đông Thành",
      "wardCode": 1601
    },
    {
      "id": 814,
      "code": "0814",
      "name": "Đức Nhàn",
      "type": "xã",
      "area": 107.6,
      "population": 7389,
      "adminCenter": "Trụ sở chính đặt tại xã Mường Chiềng, sử dụng trụ sở xã Nánh Nghê",
      "longitude": 104.914,
      "latitude": 21.0349,
      "beforeMerger": "Xã Mường Chiềng, Xã Nánh Nghê",
      "wardCode": 1697
    },
    {
      "id": 815,
      "code": "0815",
      "name": "Dũng Tiến",
      "type": "xã",
      "area": 101.1,
      "population": 20000,
      "adminCenter": "Trụ sở xã Nuông Dăm cũ",
      "longitude": 105.641,
      "latitude": 20.5615,
      "beforeMerger": "Xã Cuối Hạ, Xã Mỵ Hòa, Xã Nuông Dăm",
      "wardCode": 1669
    },
    {
      "id": 816,
      "code": "0816",
      "name": "Hạ Hòa",
      "type": "xã",
      "area": 41.23,
      "population": 21779,
      "adminCenter": "Đường Hàn Thuyên - Âu Cơ, xã Hạ Hòa, tỉnh Phú Thọ (Trụ sở Huyện ủy - UBND huyện Hạ Hòa cũ)",
      "longitude": 105.032,
      "latitude": 21.585,
      "beforeMerger": "Thị trấn Hạ Hòa, Xã Minh Hạc, Xã Ấm Hạ, Xã Gia Điền",
      "wardCode": 1560
    },
    {
      "id": 817,
      "code": "0817",
      "name": "Hải Lựu",
      "type": "xã",
      "area": 38.8,
      "population": 30098,
      "adminCenter": "Trụ sở xã Hải Lựu",
      "longitude": 105.36,
      "latitude": 21.4591,
      "beforeMerger": "Xã Nhân Đạo, Xã Đôn Nhân, Xã Phương Khoan, Xã Hải Lựu",
      "wardCode": 1627
    },
    {
      "id": 818,
      "code": "0818",
      "name": "Hiền Lương",
      "type": "xã",
      "area": 81.93,
      "population": 22337,
      "adminCenter": "Khu 10, xã Hiền Lương, tỉnh Phú Thọ (trụ sở UBND xã Xuân Áng cũ)",
      "longitude": 104.934,
      "latitude": 21.5705,
      "beforeMerger": "Xã Hiền Lương (huyện Hạ Hòa), Xã Xuân Áng",
      "wardCode": 1616
    },
    {
      "id": 819,
      "code": "0819",
      "name": "Hiền Quan",
      "type": "xã",
      "area": 31.38,
      "population": 27476,
      "adminCenter": "Trụ sở xã Bắc Sơn cũ",
      "longitude": 105.237,
      "latitude": 21.3576,
      "beforeMerger": "Xã Thanh Uyên, Xã Bắc Sơn, Xã Hiền Quan",
      "wardCode": 1575
    },
    {
      "id": 820,
      "code": "0820",
      "name": "Hòa Bình",
      "type": "phường",
      "area": 39.32,
      "population": 78605,
      "adminCenter": "Đường Lý Nam Đế, phường Hòa Bình, tỉnh Phú Thọ (Trụ sở UBND TP Hòa Bình cũ)",
      "longitude": 105.352,
      "latitude": 20.8369,
      "beforeMerger": "Phường Đồng Tiến, Phường Hữu Nghị, Phường Phương Lâm, Phường Quỳnh Lâm, Phường Tân Thịnh, Phường Thịnh Lang, Phường Trung Minh",
      "wardCode": 1664
    },
    {
      "id": 821,
      "code": "0821",
      "name": "Hoàng An",
      "type": "xã",
      "area": 20.8,
      "population": 26000,
      "adminCenter": "Trụ sở xã Hoàng Đan cũ",
      "longitude": 105.523,
      "latitude": 21.3521,
      "beforeMerger": "Xã Hoàng Đan, Xã Hoàng Lâu, Xã An Hòa",
      "wardCode": 1637
    },
    {
      "id": 822,
      "code": "0822",
      "name": "Hoàng Cương",
      "type": "xã",
      "area": 39.51,
      "population": 27890,
      "adminCenter": "Trụ sở UBND xã Hoàng Cương",
      "longitude": 105.133,
      "latitude": 21.4721,
      "beforeMerger": "Xã Ninh Dân, Xã Mạn Lạn, Xã Hoàng Cương",
      "wardCode": 1590
    },
    {
      "id": 823,
      "code": "0823",
      "name": "Hội Thịnh",
      "type": "xã",
      "area": 25.1,
      "population": 37115,
      "adminCenter": "Trụ sở xã Duy Phiên cũ",
      "longitude": 105.548,
      "latitude": 21.315,
      "beforeMerger": "Xã Duy Phiên, Xã Thanh Vân, Xã Hội Thịnh",
      "wardCode": 1636
    },
    {
      "id": 824,
      "code": "0824",
      "name": "Hợp Kim",
      "type": "xã",
      "area": 86.29,
      "population": 21033,
      "adminCenter": "Trụ sở xã Nam Thượng cũ",
      "longitude": 105.589,
      "latitude": 20.6523,
      "beforeMerger": "Xã Kim Lập, Xã Nam Thượng, Xã Sào Báy",
      "wardCode": 1673
    },
    {
      "id": 825,
      "code": "0825",
      "name": "Hợp Lý",
      "type": "xã",
      "area": 34.1,
      "population": 19611,
      "adminCenter": "Trụ sở xã Quang Sơn cũ",
      "longitude": 105.444,
      "latitude": 21.4873,
      "beforeMerger": "Xã Ngọc Mỹ (huyện Lập Thạch), Xã Quang Sơn, Xã Hợp Lý",
      "wardCode": 1656
    },
    {
      "id": 826,
      "code": "0826",
      "name": "Hùng Việt",
      "type": "xã",
      "area": 32.77,
      "population": 22935,
      "adminCenter": "Trụ sở UBND xã Hùng Việt",
      "longitude": 105.146,
      "latitude": 21.3584,
      "beforeMerger": "Xã Nhật Tiến, Xã Hùng Việt",
      "wardCode": 1582
    },
    {
      "id": 827,
      "code": "0827",
      "name": "Hương Cần",
      "type": "xã",
      "area": 81.3,
      "population": 17900,
      "adminCenter": "Trụ sở xã Hương Cần",
      "longitude": 105.266,
      "latitude": 21.0104,
      "beforeMerger": "Xã Yên Lương, Xã Yên Lãng, Xã Hương Cần",
      "wardCode": 1613
    },
    {
      "id": 828,
      "code": "0828",
      "name": "Hy Cương",
      "type": "xã",
      "area": 23.95,
      "population": 22693,
      "adminCenter": "Khu 6, xã Hy Cương, tỉnh Phú Thọ (Trụ sở UBND xã Thanh Đình cũ)",
      "longitude": 105.32,
      "latitude": 21.3471,
      "beforeMerger": "Xã Thanh Đình, Xã Chu Hóa, Xã Hy Cương",
      "wardCode": 1573
    },
    {
      "id": 829,
      "code": "0829",
      "name": "Khả Cửu",
      "type": "xã",
      "area": 148.48,
      "population": 13149,
      "adminCenter": "Trụ sở xã Khả Cửu",
      "longitude": 105.125,
      "latitude": 21.0029,
      "beforeMerger": "Xã Đông Cửu, Xã Thượng Cửu, Xã Khả Cửu",
      "wardCode": 1603
    },
    {
      "id": 830,
      "code": "0830",
      "name": "Kim Bôi",
      "type": "xã",
      "area": 64.57,
      "population": 35915,
      "adminCenter": "Trụ sở chính đặt tại thị trấn Bọ, sử dụng trụ sở UBND huyện Kim Bôi",
      "longitude": 105.523,
      "latitude": 20.6572,
      "beforeMerger": "Thị trấn Bo, Xã Vĩnh Đồng, Xã Kim Bôi",
      "wardCode": 1679
    },
    {
      "id": 831,
      "code": "0831",
      "name": "Kỳ Sơn",
      "type": "phường",
      "area": 115.7,
      "population": 20319,
      "adminCenter": "Trụ sở chính tại trụ sở xã Mông Hóa cũ",
      "longitude": 105.404,
      "latitude": 20.8812,
      "beforeMerger": "Phường Kỳ Sơn, Xã Độc Lập, Xã Mông Hóa",
      "wardCode": 1693
    },
    {
      "id": 832,
      "code": "0832",
      "name": "Lạc Lương",
      "type": "xã",
      "area": 130.41,
      "population": 25289,
      "adminCenter": "Trụ sở UBND xã Bảo Hiệu cũ",
      "longitude": 105.609,
      "latitude": 20.4742,
      "beforeMerger": "Xã Bảo Hiệu, Xã Đa Phúc, Xã Lạc Sỹ, Xã Lạc Lương",
      "wardCode": 1678
    },
    {
      "id": 833,
      "code": "0833",
      "name": "Lạc Sơn",
      "type": "xã",
      "area": 58.1,
      "population": 27500,
      "adminCenter": "Trụ sở thị trấn Vụ Bản cũ",
      "longitude": 105.483,
      "latitude": 20.455,
      "beforeMerger": "Thị trấn Vụ Bản, Xã Hương Nhượng, Xã Vũ Bình",
      "wardCode": 1663
    },
    {
      "id": 834,
      "code": "0834",
      "name": "Lạc Thủy",
      "type": "xã",
      "area": 90.69,
      "population": 24529,
      "adminCenter": "Trụ sở UBND huyện Chi Nê cũ",
      "longitude": 105.799,
      "latitude": 20.476,
      "beforeMerger": "Thị trấn Chi Nê, Xã Đồng Tâm, Xã Khoan Dụ, Xã Yên Bồng",
      "wardCode": 1659
    },
    {
      "id": 835,
      "code": "0835",
      "name": "Lai Đồng",
      "type": "xã",
      "area": 108.45,
      "population": 16321,
      "adminCenter": "Trụ sở xã Lai Đồng",
      "longitude": 104.909,
      "latitude": 21.2118,
      "beforeMerger": "Xã Kiệt Sơn, Xã Tân Sơn, Xã Đồng Sơn, Xã Lai Đồng",
      "wardCode": 1581
    },
    {
      "id": 836,
      "code": "0836",
      "name": "Lâm Thao",
      "type": "xã",
      "area": 15.45,
      "population": 31321,
      "adminCenter": "Trụ sở HĐND - UBND huyện Lâm Thao cũ",
      "longitude": 105.289,
      "latitude": 21.3425,
      "beforeMerger": "Thị trấn Hùng Sơn, Thị trấn Lâm Thao, Xã Thạch Sơn",
      "wardCode": 1578
    },
    {
      "id": 837,
      "code": "0837",
      "name": "Lập Thạch",
      "type": "xã",
      "area": 39.1,
      "population": 34604,
      "adminCenter": "Tổ dân phố Vĩnh Thịnh, DT307, xã Lập Thạch, tỉnh Phú Thọ (Trụ sở UBND huyện Lập Thạch cũ)",
      "longitude": 105.464,
      "latitude": 21.4301,
      "beforeMerger": "Thị trấn Lập Thạch, Xã Xuân Hòa, Xã Tử Du, Xã Vân Trục",
      "wardCode": 1625
    },
    {
      "id": 838,
      "code": "0838",
      "name": "Liên Châu",
      "type": "xã",
      "area": 26,
      "population": 35029,
      "adminCenter": "Trụ sở xã Đại Tự cũ",
      "longitude": 105.567,
      "latitude": 21.18,
      "beforeMerger": "Xã Đại Tự, Xã Hồng Châu, Xã Liên Châu",
      "wardCode": 1649
    },
    {
      "id": 839,
      "code": "0839",
      "name": "Liên Hòa",
      "type": "xã",
      "area": 18.8,
      "population": 19257,
      "adminCenter": "Trụ sở xã Liên Hòa",
      "longitude": 105.509,
      "latitude": 21.4115,
      "beforeMerger": "Thị trấn Hoa Sơn, Xã Bàn Giản, Xã Liên Hòa",
      "wardCode": 1629
    },
    {
      "id": 840,
      "code": "0840",
      "name": "Liên Minh",
      "type": "xã",
      "area": 20.98,
      "population": 23443,
      "adminCenter": "Trụ sở UBND xã Đỗ Xuyên cũ",
      "longitude": 105.203,
      "latitude": 21.3464,
      "beforeMerger": "Xã Đỗ Sơn, Xã Đỗ Xuyên, Xã Lương Lỗ",
      "wardCode": 1597
    },
    {
      "id": 841,
      "code": "0841",
      "name": "Liên Sơn",
      "type": "xã",
      "area": 120.21,
      "population": 31834,
      "adminCenter": "Trụ sở UBND xã Cư Yên cũ",
      "longitude": 105.604,
      "latitude": 20.7995,
      "beforeMerger": "Xã Cư Yên, Xã Liên Sơn, Xã Cao Sơn (huyện Lương Sơn)",
      "wardCode": 3327
    },
    {
      "id": 842,
      "code": "0842",
      "name": "Long Cốc",
      "type": "xã",
      "area": 67.09,
      "population": 8708,
      "adminCenter": "Trụ sở xã Tam Thanh cũ",
      "longitude": 105.071,
      "latitude": 21.0918,
      "beforeMerger": "Xã Tam Thanh, Xã Vinh Tiền, Xã Long Cốc",
      "wardCode": 1588
    },
    {
      "id": 843,
      "code": "0843",
      "name": "Lương Sơn",
      "type": "xã",
      "area": 131.24,
      "population": 45383,
      "adminCenter": "543 đường Trần Phú, xã Lương Sơn, tỉnh Phú Thọ (Trụ sở UBND huyện Lương Sơn)",
      "longitude": 105.506,
      "latitude": 20.8832,
      "beforeMerger": "Thị trấn Lương Sơn, Xã Hòa Sơn, Xã Lâm Sơn, Xã Nhuận Trạch, Xã Tân Vinh, Xã Cao Sơn (huyện Lương Sơn)",
      "wardCode": 1696
    },
    {
      "id": 844,
      "code": "0844",
      "name": "Mai Châu",
      "type": "xã",
      "area": 147.74,
      "population": 19143,
      "adminCenter": "Quốc lộ 15, tiểu khu 2, xã Mai Châu, tỉnh Phú Thọ (Trụ sở UBND huyện Mai Châu cũ)",
      "longitude": 105.052,
      "latitude": 20.6924,
      "beforeMerger": "Thị trấn Mai Châu, Xã Nà Phòn, Xã Thành Sơn, Xã Tòng Đậu, Xã Đồng Tân",
      "wardCode": 1699
    },
    {
      "id": 845,
      "code": "0845",
      "name": "Mai Hạ",
      "type": "xã",
      "area": 71.86,
      "population": 10317,
      "adminCenter": "Trụ sở UBND xã Vạn Mai cũ",
      "longitude": 105.05,
      "latitude": 20.6084,
      "beforeMerger": "Xã Chiềng Châu, Xã Vạn Mai, Xã Mai Hạ",
      "wardCode": 1702
    },
    {
      "id": 846,
      "code": "0846",
      "name": "Minh Đài",
      "type": "xã",
      "area": 84.74,
      "population": 24209,
      "adminCenter": "Trụ sở xã Văn Luông",
      "longitude": 105.066,
      "latitude": 21.1796,
      "beforeMerger": "Xã Mỹ Thuận, Xã Văn Luông, Xã Minh Đài",
      "wardCode": 1611
    },
    {
      "id": 847,
      "code": "0847",
      "name": "Minh Hòa",
      "type": "xã",
      "area": 68.44,
      "population": 16425,
      "adminCenter": "Trụ sở xã Minh Hòa",
      "longitude": 105.125,
      "latitude": 21.2537,
      "beforeMerger": "Xã Ngọc Lập, Xã Ngọc Đồng, Xã Minh Hòa",
      "wardCode": 1607
    },
    {
      "id": 848,
      "code": "0848",
      "name": "Mường Bi",
      "type": "xã",
      "area": 94.79,
      "population": 20913,
      "adminCenter": "Trụ sở UBND xã Mỹ Hòa cũ",
      "longitude": 105.192,
      "latitude": 20.6312,
      "beforeMerger": "Xã Mỹ Hòa, Xã Phong Phú, Xã Phú Cường",
      "wardCode": 1657
    },
    {
      "id": 849,
      "code": "0849",
      "name": "Mường Động",
      "type": "xã",
      "area": 144.69,
      "population": 26092,
      "adminCenter": "Trụ sở chính đặt tại xã Đông Bắc, sử dụng trụ sở xã Đông Bắc",
      "longitude": 105.436,
      "latitude": 20.6924,
      "beforeMerger": "Xã Đông Bắc, Xã Hợp Tiến, Xã Tú Sơn, Xã Vĩnh Tiến",
      "wardCode": 1668
    },
    {
      "id": 850,
      "code": "0850",
      "name": "Mường Hoa",
      "type": "xã",
      "area": 104.54,
      "population": 8563,
      "adminCenter": "Trụ sở UBND xã Suối Hoa cũ",
      "longitude": 105.191,
      "latitude": 20.7098,
      "beforeMerger": "Xã Phú Vinh, Xã Suối Hoa",
      "wardCode": 1667
    },
    {
      "id": 851,
      "code": "0851",
      "name": "Mường Thàng",
      "type": "xã",
      "area": 91.58,
      "population": 19883,
      "adminCenter": "Trụ sở xã Dũng Phong (tạm thời sử dụng trụ sở xã Nam Phong)",
      "longitude": 105.337,
      "latitude": 20.6417,
      "beforeMerger": "Xã Dũng Phong, Xã Nam Phong, Xã Tây Phong, Xã Thạch Yên",
      "wardCode": 1665
    },
    {
      "id": 852,
      "code": "0852",
      "name": "Mường Vang",
      "type": "xã",
      "area": 69.79,
      "population": 20583,
      "adminCenter": "Trụ sở xã Tân Lập cũ",
      "longitude": 105.461,
      "latitude": 20.5841,
      "beforeMerger": "Xã Tân Lập (huyện Lạc Sơn), Xã Quý Hòa, Xã Tuân Đạo",
      "wardCode": 1687
    },
    {
      "id": 853,
      "code": "0853",
      "name": "Nật Sơn",
      "type": "xã",
      "area": 154.65,
      "population": 28940,
      "adminCenter": "Trụ sở xã Bình Sơn cũ",
      "longitude": 105.494,
      "latitude": 20.76,
      "beforeMerger": "Xã Xuân Thủy (huyện Kim Bôi), Xã Bình Sơn, Xã Đú Sáng, Xã Hùng Sơn",
      "wardCode": 1666
    },
    {
      "id": 854,
      "code": "0854",
      "name": "Ngọc Sơn",
      "type": "xã",
      "area": 114.63,
      "population": 8981,
      "adminCenter": "Trụ sở xã Ngọc Sơn",
      "longitude": 105.362,
      "latitude": 20.4214,
      "beforeMerger": "Xã Ngọc Lâu, Xã Tự Do, Xã Ngọc Sơn",
      "wardCode": 1683
    },
    {
      "id": 855,
      "code": "0855",
      "name": "Nguyệt Đức",
      "type": "xã",
      "area": 19,
      "population": 34166,
      "adminCenter": "Trụ sở xã Nguyệt Đức",
      "longitude": 105.612,
      "latitude": 21.1982,
      "beforeMerger": "Xã Văn Tiến, Xã Trung Kiên, Xã Trung Hà, Xã Nguyệt Đức",
      "wardCode": 1648
    },
    {
      "id": 856,
      "code": "0856",
      "name": "Nhân Nghĩa",
      "type": "xã",
      "area": 81.37,
      "population": 19456,
      "adminCenter": "Trụ sở xã Nhân Nghĩa",
      "longitude": 105.494,
      "latitude": 20.5403,
      "beforeMerger": "Xã Mỹ Thành, Xã Văn Nghĩa, Xã Nhân Nghĩa",
      "wardCode": 1670
    },
    {
      "id": 857,
      "code": "0857",
      "name": "Nông Trang",
      "type": "phường",
      "area": 15.89,
      "population": 57770,
      "adminCenter": "- Trụ sở UBND và Trung tâm Hành chính công: Phố Đốc Ngữ, phường Nông Trang, tỉnh Phú Thọ (Trụ sở phường Minh Phương cũ) - Trụ sở Đảng ủy: 1686 đại lộ Hùng Vương, phường Nông Trang, tỉnh Phú Thọ (Trụ sở phường Nông Trang cũ)",
      "longitude": 105.357,
      "latitude": 21.3283,
      "beforeMerger": "Phường Minh Phương, Phường Nông Trang, Xã Thụy Vân",
      "wardCode": 1574
    },
    {
      "id": 858,
      "code": "0858",
      "name": "Pà Cò",
      "type": "xã",
      "area": 115.76,
      "population": 11334,
      "adminCenter": "Trụ sở UBND xã Cun Pheo cũ",
      "longitude": 104.887,
      "latitude": 20.7119,
      "beforeMerger": "Xã Cun Pheo, Xã Hang Kia, Xã Pà Cò, Xã Đồng Tân",
      "wardCode": 1700
    },
    {
      "id": 859,
      "code": "0859",
      "name": "Phong Châu",
      "type": "phường",
      "area": 29.61,
      "population": 32519,
      "adminCenter": "Đảng ủy-HĐND-UBND-MTTQ: Đường quốc lộ 2, phường Phong Châu (Trụ sở UBND xã Phú Hộ cũ)\nTrung tâm Hành chính công: Đường sông Hồng, khu dân cư Phú Hà, phường Phong Châu, tỉnh Phú Thọ (Trụ sở UBND phường Phong Châu cũ)",
      "longitude": 105.257,
      "latitude": 21.4208,
      "beforeMerger": "Phường Phong Châu, Xã Phú Hộ, Xã Hà Thạch",
      "wardCode": 1592
    },
    {
      "id": 860,
      "code": "0860",
      "name": "Phú Khê",
      "type": "xã",
      "area": 37.11,
      "population": 25630,
      "adminCenter": "Trụ sở UBND xã Phú Khê",
      "longitude": 105.102,
      "latitude": 21.3779,
      "beforeMerger": "Xã Hương Lung, Xã Phú Khê",
      "wardCode": 1594
    },
    {
      "id": 861,
      "code": "0861",
      "name": "Phú Mỹ",
      "type": "xã",
      "area": 27.36,
      "population": 15460,
      "adminCenter": "Trụ sở UBND xã Liên Hoa cũ",
      "longitude": 105.274,
      "latitude": 21.5134,
      "beforeMerger": "Xã Liên Hoa, Xã Lệ Mỹ, Xã Phú Mỹ",
      "wardCode": 1566
    },
    {
      "id": 862,
      "code": "0862",
      "name": "Phù Ninh",
      "type": "xã",
      "area": 39.28,
      "population": 45037,
      "adminCenter": "Trụ sở Huyện ủy - UBND huyện Phù Ninh cũ",
      "longitude": 105.314,
      "latitude": 21.4134,
      "beforeMerger": "Thị trấn Phong Châu, Xã Phú Nham, Xã Phú Lộc, Xã Phù Ninh",
      "wardCode": 1605
    },
    {
      "id": 863,
      "code": "0863",
      "name": "Phú Thọ",
      "type": "phường",
      "area": 23.07,
      "population": 27957,
      "adminCenter": "Đảng ủy và MTTQ: Số 198 đường Nguyễn Tất Thành, phường Phú Thọ (Trụ sở Thị ủy Phú Thọ cũ)\nHĐND và UBND: Số 200 đường Nguyễn Tất Thành, phường Phú Thọ (Trường Đại học Hùng Vương cũ)\nTrung tâm hành chính công: Số 210 đường Nguyễn Tất Thành, phường Phú Thọ (Trụ sở UBND phường Hùng Vương cũ)",
      "longitude": 105.225,
      "latitude": 21.4263,
      "beforeMerger": "Phường Hùng Vương (thị xã Phú Thọ), Xã Văn Lung, Xã Hà Lộc",
      "wardCode": 1584
    },
    {
      "id": 864,
      "code": "0864",
      "name": "Phúc Yên",
      "type": "phường",
      "area": 23.4,
      "population": 63954,
      "adminCenter": "145 Trần Hưng Đạo, phường Phúc Yên, tỉnh Phú Thọ (Trụ sở UBND TP Phúc Yên cũ)",
      "longitude": 105.707,
      "latitude": 21.2457,
      "beforeMerger": "Phường Hùng Vương (thành phố Phúc Yên), Phường Hai Bà Trưng, Phường Phúc Thắng, Phường Tiền Châu, Phường Nam Viêm",
      "wardCode": 1623
    },
    {
      "id": 865,
      "code": "0865",
      "name": "Phùng Nguyên",
      "type": "xã",
      "area": 30.57,
      "population": 41046,
      "adminCenter": "Trụ sở xã Phùng Nguyên",
      "longitude": 105.295,
      "latitude": 21.2936,
      "beforeMerger": "Xã Tứ Xã, Xã Sơn Vi, Xã Phùng Nguyên",
      "wardCode": 1589
    },
    {
      "id": 866,
      "code": "0866",
      "name": "Quảng Yên",
      "type": "xã",
      "area": 39.58,
      "population": 15056,
      "adminCenter": "Trụ sở UBND xã Quảng Yên",
      "longitude": 105.175,
      "latitude": 21.5152,
      "beforeMerger": "Xã Đại An, Xã Đông Lĩnh, Xã Quảng Yên",
      "wardCode": 1565
    },
    {
      "id": 867,
      "code": "0867",
      "name": "Quy Đức",
      "type": "xã",
      "area": 146.97,
      "population": 9462,
      "adminCenter": "Trụ sở chính đặt tại xã Đoàn Kết, sử dụng trụ sở xã Yên Hòa",
      "longitude": 105.053,
      "latitude": 20.8908,
      "beforeMerger": "Xã Đoàn Kết (huyện Đà Bắc), Xã Đồng Ruộng, Xã Trung Thành, Xã Yên Hoà",
      "wardCode": 1694
    },
    {
      "id": 868,
      "code": "0868",
      "name": "Quyết Thắng",
      "type": "xã",
      "area": 59.66,
      "population": 22746,
      "adminCenter": "Trụ sở xã Quyết Thắng",
      "longitude": 105.363,
      "latitude": 20.4744,
      "beforeMerger": "Xã Chí Đạo, Xã Định Cư, Xã Quyết Thắng",
      "wardCode": 1690
    },
    {
      "id": 869,
      "code": "0869",
      "name": "Sơn Đông",
      "type": "xã",
      "area": 26.7,
      "population": 36076,
      "adminCenter": "Trụ sở xã Cao Phong cũ",
      "longitude": 105.461,
      "latitude": 21.332,
      "beforeMerger": "Xã Tây Sơn, Xã Cao Phong, Xã Sơn Đông",
      "wardCode": 1633
    },
    {
      "id": 870,
      "code": "0870",
      "name": "Sơn Lương",
      "type": "xã",
      "area": 96.92,
      "population": 23365,
      "adminCenter": "Trụ sở xã Lương Sơn cũ",
      "longitude": 104.934,
      "latitude": 21.4722,
      "beforeMerger": "Xã Mỹ Lương, Xã Mỹ Lung, Xã Lương Sơn",
      "wardCode": 1617
    },
    {
      "id": 871,
      "code": "0871",
      "name": "Sông Lô",
      "type": "xã",
      "area": 33.4,
      "population": 34291,
      "adminCenter": "Trụ sở xã Đồng Thịnh cũ",
      "longitude": 105.421,
      "latitude": 21.3776,
      "beforeMerger": "Xã Đồng Thịnh (huyện Sông Lô), Xã Tứ Yên, Xã Đức Bác, Xã Yên Thạch",
      "wardCode": 1631
    },
    {
      "id": 872,
      "code": "0872",
      "name": "Tam Đảo",
      "type": "xã",
      "area": 79.2,
      "population": 34772,
      "adminCenter": "Km10 Hợp Châu, xã Tam Đảo, tỉnh Phú Thọ (Trụ sở UBND huyện Tam Đảo cũ)",
      "longitude": 105.643,
      "latitude": 21.409,
      "beforeMerger": "Thị trấn Hợp Châu, Thị trấn Tam Đảo, Xã Hồ Sơn, Xã Minh Quang",
      "wardCode": 1638
    },
    {
      "id": 873,
      "code": "0873",
      "name": "Tam Dương",
      "type": "xã",
      "area": 44.3,
      "population": 47936,
      "adminCenter": "quốc lộ 2C, phố Me, xã Tam Dương, tỉnh Phú Thọ (trụ sở UBND huyện Tam Dương cũ)",
      "longitude": 105.572,
      "latitude": 21.3729,
      "beforeMerger": "Thị trấn Hợp Hòa, Thị trấn Kim Long, Xã Hướng Đạo, Xã Đạo Tú",
      "wardCode": 1634
    },
    {
      "id": 874,
      "code": "0874",
      "name": "Tam Dương Bắc",
      "type": "xã",
      "area": 45.8,
      "population": 37284,
      "adminCenter": "Trụ sở xã Hoàng Hoa cũ",
      "longitude": 105.578,
      "latitude": 21.4299,
      "beforeMerger": "Xã Đồng Tĩnh, Xã Hoàng Hoa, Xã Tam Quan",
      "wardCode": 1635
    },
    {
      "id": 875,
      "code": "0875",
      "name": "Tam Hồng",
      "type": "xã",
      "area": 22.6,
      "population": 40224,
      "adminCenter": "Trụ sở xã Tam Hồng",
      "longitude": 105.568,
      "latitude": 21.2144,
      "beforeMerger": "Thị trấn Tam Hồng, Xã Yên Phương, Xã Yên Đồng",
      "wardCode": 1647
    },
    {
      "id": 876,
      "code": "0876",
      "name": "Tam Nông",
      "type": "xã",
      "area": 28.25,
      "population": 26412,
      "adminCenter": "Trụ sở HĐND-UBND huyện Tam Nông cũ",
      "longitude": 105.3,
      "latitude": 21.2501,
      "beforeMerger": "Thị trấn Hưng Hóa, Xã Dân Quyền, Xã Hương Nộn",
      "wardCode": 1609
    },
    {
      "id": 877,
      "code": "0877",
      "name": "Tam Sơn",
      "type": "xã",
      "area": 33.1,
      "population": 25523,
      "adminCenter": "xã Tam Sơn, tỉnh Phú Thọ (Trụ sở Huyện ủy-HĐND-UBND huyện Sông Lô cũ)",
      "longitude": 105.418,
      "latitude": 21.4358,
      "beforeMerger": "Xã Tân Lập (huyện Sông Lô), Xã Đồng Quế, Thị trấn Tam Sơn",
      "wardCode": 1630
    },
    {
      "id": 878,
      "code": "0878",
      "name": "Tân Hòa",
      "type": "phường",
      "area": 56.98,
      "population": 14316,
      "adminCenter": "Trụ sở chính tại trụ sở xã Tên Mông cũ",
      "longitude": 105.319,
      "latitude": 20.8729,
      "beforeMerger": "Phường Tân Hòa, Xã Hòa Bình, Xã Yên Mông",
      "wardCode": 1676
    },
    {
      "id": 879,
      "code": "0879",
      "name": "Tân Lạc",
      "type": "xã",
      "area": 139.9,
      "population": 42031,
      "adminCenter": "Trụ HĐND-UBND huyện Tân Lạc",
      "longitude": 105.314,
      "latitude": 20.5794,
      "beforeMerger": "Thị trấn Mãn Đức, Xã Ngọc Mỹ (huyện Tân Lạc), Xã Đông Lai, Xã Thanh Hối, Xã Tử Nê",
      "wardCode": 1658
    },
    {
      "id": 880,
      "code": "0880",
      "name": "Tân Mai",
      "type": "xã",
      "area": 130.71,
      "population": 7924,
      "adminCenter": "Trụ sở UBND xã Tân Thành cũ",
      "longitude": 105.056,
      "latitude": 20.7768,
      "beforeMerger": "Xã Sơn Thủy (huyện Mai Châu), Xã Tân Thành",
      "wardCode": 1672
    },
    {
      "id": 881,
      "code": "0881",
      "name": "Tân Pheo",
      "type": "xã",
      "area": 139.38,
      "population": 10528,
      "adminCenter": "Trụ sở chính đặt tại xã Tân Pheo, sử dụng trụ sở xã Giáp Đắt",
      "longitude": 104.963,
      "latitude": 20.958,
      "beforeMerger": "Xã Đồng Chum, Xã Giáp Đắt, Xã Tân Pheo",
      "wardCode": 1698
    },
    {
      "id": 882,
      "code": "0882",
      "name": "Tân Sơn",
      "type": "xã",
      "area": 118.21,
      "population": 18246,
      "adminCenter": "Trụ sở HĐND-UBND huyện Tân Sơn cũ",
      "longitude": 105.006,
      "latitude": 21.2493,
      "beforeMerger": "Thị trấn Tân Phú, Xã Thu Ngạc, Xã Thạch Kiệt",
      "wardCode": 1569
    },
    {
      "id": 883,
      "code": "0883",
      "name": "Tây Cốc",
      "type": "xã",
      "area": 59.07,
      "population": 21227,
      "adminCenter": "Trụ sở UBND xã Tây Cốc trước sáp nhập",
      "longitude": 105.124,
      "latitude": 21.6342,
      "beforeMerger": "Xã Phú Lâm, Xã Ca Đình, Xã Tây Cốc",
      "wardCode": 1558
    },
    {
      "id": 884,
      "code": "0884",
      "name": "Tề Lỗ",
      "type": "xã",
      "area": 18.3,
      "population": 37232,
      "adminCenter": "Trụ sở xã Đồng Văn cũ",
      "longitude": 105.55,
      "latitude": 21.2592,
      "beforeMerger": "Xã Đồng Văn, Xã Trung Nguyên, Xã Tề Lỗ",
      "wardCode": 1646
    },
    {
      "id": 885,
      "code": "0885",
      "name": "Thái Hòa",
      "type": "xã",
      "area": 29,
      "population": 23943,
      "adminCenter": "Trụ sở xã Liễn Sơn cũ",
      "longitude": 105.501,
      "latitude": 21.4589,
      "beforeMerger": "Xã Bắc Bình, Xã Liễn Sơn, Xã Thái Hòa",
      "wardCode": 1628
    },
    {
      "id": 886,
      "code": "0886",
      "name": "Thanh Ba",
      "type": "xã",
      "area": 38.6,
      "population": 30014,
      "adminCenter": "Trụ sở UBND huyện Thanh Ba cũ",
      "longitude": 105.118,
      "latitude": 21.5195,
      "beforeMerger": "Thị trấn Thanh Ba, Xã Đồng Xuân, Xã Hanh Cù, Xã Vân Lĩnh",
      "wardCode": 1564
    },
    {
      "id": 887,
      "code": "0887",
      "name": "Thanh Miếu",
      "type": "phường",
      "area": 19.57,
      "population": 58548,
      "adminCenter": "Đường Nguyễn Tất Thành, phường Thanh Miếu, tỉnh Phú Thọ (Trung tâm Thanh thiếu nhi Hùng Vương)",
      "longitude": 105.431,
      "latitude": 21.303,
      "beforeMerger": "Phường Thọ Sơn, Phường Tiên Cát, Phường Bạch Hạc, Phường Thanh Miếu, Xã Sông Lô",
      "wardCode": 1599
    },
    {
      "id": 888,
      "code": "0888",
      "name": "Thanh Sơn",
      "type": "xã",
      "area": 84.55,
      "population": 38776,
      "adminCenter": "Trụ sở Huyện ủy-HDND-UBND huyện Thanh Sơn cũ",
      "longitude": 105.204,
      "latitude": 21.1988,
      "beforeMerger": "Thị trấn Thanh Sơn, Xã Sơn Hùng, Xã Giáp Lai, Xã Thạch Khoán, Xã Thục Luyện",
      "wardCode": 1571
    },
    {
      "id": 889,
      "code": "0889",
      "name": "Thanh Thủy",
      "type": "xã",
      "area": 31.08,
      "population": 27678,
      "adminCenter": "Trụ sở HĐND-UBND huyện Thanh Thủy cũ",
      "longitude": 105.271,
      "latitude": 21.1475,
      "beforeMerger": "Xã Sơn Thủy (huyện Thanh Thủy), Xã Đoan Hạ, Xã Bảo Yên, Thị trấn Thanh Thủy",
      "wardCode": 1608
    },
    {
      "id": 890,
      "code": "0890",
      "name": "Thịnh Minh",
      "type": "xã",
      "area": 89.21,
      "population": 19198,
      "adminCenter": "Trụ sở UBND xã Thịnh Minh",
      "longitude": 105.379,
      "latitude": 20.97,
      "beforeMerger": "Xã Hợp Thành, Xã Quang Tiến, Xã Thịnh Minh",
      "wardCode": 1692
    },
    {
      "id": 891,
      "code": "0891",
      "name": "Thổ Tang",
      "type": "xã",
      "area": 21.3,
      "population": 43208,
      "adminCenter": "Phố Lý Quốc Sư, xã Thổ Tang, tỉnh Phú Thọ (Trụ sở thị trấn Thổ Tang cũ)",
      "longitude": 105.489,
      "latitude": 21.2333,
      "beforeMerger": "Thị trấn Thổ Tang, Xã Thượng Trưng, Xã Tuân Chính",
      "wardCode": 1654
    },
    {
      "id": 892,
      "code": "0892",
      "name": "Thọ Văn",
      "type": "xã",
      "area": 43.54,
      "population": 15281,
      "adminCenter": "Trụ sở xã Thọ Văn",
      "longitude": 105.249,
      "latitude": 21.2428,
      "beforeMerger": "Xã Dị Nậu, Xã Tề Lễ, Xã Thọ Văn",
      "wardCode": 1596
    },
    {
      "id": 893,
      "code": "0893",
      "name": "Thống Nhất",
      "type": "phường",
      "area": 55.21,
      "population": 22897,
      "adminCenter": "Trụ sở UBND phường Thống Nhất",
      "longitude": 105.342,
      "latitude": 20.776,
      "beforeMerger": "Phường Dân Chủ, Phường Thái Bình, Phường Thống Nhất, Xã Vầy Nưa",
      "wardCode": 1688
    },
    {
      "id": 894,
      "code": "0894",
      "name": "Thu Cúc",
      "type": "xã",
      "area": 100.51,
      "population": 11313,
      "adminCenter": "Trụ sở xã Thu Cúc",
      "longitude": 104.883,
      "latitude": 21.3006,
      "beforeMerger": "Không sáp nhập",
      "wardCode": 1619
    },
    {
      "id": 895,
      "code": "0895",
      "name": "Thung Nai",
      "type": "xã",
      "area": 86.34,
      "population": 10600,
      "adminCenter": "Trụ sở xã Bắc Phong (tạm thời sử dụng trụ sở xã Nam Phong)",
      "longitude": 105.262,
      "latitude": 20.7472,
      "beforeMerger": "Xã Bắc Phong, Xã Bình Thanh, Xã Thung Nai",
      "wardCode": 1684
    },
    {
      "id": 896,
      "code": "0896",
      "name": "Thượng Cốc",
      "type": "xã",
      "area": 58.38,
      "population": 18430,
      "adminCenter": "Trụ sở xã Văn Sơn cũ",
      "longitude": 105.391,
      "latitude": 20.5256,
      "beforeMerger": "Xã Miền Đồi, Xã Văn Sơn, Xã Thượng Cốc",
      "wardCode": 1674
    },
    {
      "id": 897,
      "code": "0897",
      "name": "Thượng Long",
      "type": "xã",
      "area": 60.36,
      "population": 16108,
      "adminCenter": "Trụ sở xã Phúc Khánh cũ",
      "longitude": 105.01,
      "latitude": 21.3287,
      "beforeMerger": "Xã Phúc Khánh, Xã Nga Hoàng, Xã Thượng Long",
      "wardCode": 1577
    },
    {
      "id": 898,
      "code": "0898",
      "name": "Tiên Lữ",
      "type": "xã",
      "area": 31.8,
      "population": 32710,
      "adminCenter": "Trụ sở xã Tiên Lữ",
      "longitude": 105.462,
      "latitude": 21.3731,
      "beforeMerger": "Xã Xuân Lôi, Xã Văn Quán, Xã Đồng Ích, Xã Tiên Lữ",
      "wardCode": 1632
    },
    {
      "id": 899,
      "code": "0899",
      "name": "Tiên Lương",
      "type": "xã",
      "area": 54.55,
      "population": 38028,
      "adminCenter": "Trụ sở UBND xã Minh Thắng cũ",
      "longitude": 105.025,
      "latitude": 21.4665,
      "beforeMerger": "Xã Phượng Vĩ, Xã Minh Thắng, Xã Tiên Lương",
      "wardCode": 1567
    },
    {
      "id": 900,
      "code": "0900",
      "name": "Tiền Phong",
      "type": "xã",
      "area": 116.31,
      "population": 5246,
      "adminCenter": "Trụ sở chính đặt tại xã Vầy Nữa, sủ dụng trụ sở xã Tiền Phong",
      "longitude": 105.121,
      "latitude": 20.7953,
      "beforeMerger": "Xã Tiền Phong, Xã Vầy Nưa",
      "wardCode": 1677
    },
    {
      "id": 901,
      "code": "0901",
      "name": "Toàn Thắng",
      "type": "xã",
      "area": 71.11,
      "population": 15427,
      "adminCenter": "Trụ sở UBND xã Nhân Mỹ cũ",
      "longitude": 105.259,
      "latitude": 20.547,
      "beforeMerger": "Xã Gia Mô, Xã Lỗ Sơn, Xã Nhân Mỹ",
      "wardCode": 1661
    },
    {
      "id": 902,
      "code": "0902",
      "name": "Trạm Thản",
      "type": "xã",
      "area": 32.6,
      "population": 16138,
      "adminCenter": "Trụ sở UBND xã Tiên Phú cũ",
      "longitude": 105.255,
      "latitude": 21.4731,
      "beforeMerger": "Xã Tiên Phú, Xã Trung Giáp, Xã Trạm Thản",
      "wardCode": 1620
    },
    {
      "id": 903,
      "code": "0903",
      "name": "Trung Sơn",
      "type": "xã",
      "area": 97.29,
      "population": 6028,
      "adminCenter": "Trụ sở xã Trung Sơn",
      "longitude": 104.944,
      "latitude": 21.3563,
      "beforeMerger": "Không sáp nhập",
      "wardCode": 1618
    },
    {
      "id": 904,
      "code": "0904",
      "name": "Tu Vũ",
      "type": "xã",
      "area": 49.07,
      "population": 41564,
      "adminCenter": "Trụ sở xã Đồng Trung",
      "longitude": 105.289,
      "latitude": 21.0736,
      "beforeMerger": "Xã Đồng Trung, Xã Hoàng Xá, Xã Tu Vũ",
      "wardCode": 1610
    },
    {
      "id": 905,
      "code": "0905",
      "name": "Vân Bán",
      "type": "xã",
      "area": 22.72,
      "population": 15904,
      "adminCenter": "đang cập nhật",
      "longitude": 105.049,
      "latitude": 21.4227,
      "beforeMerger": "Xã Tùng Khê, Xã Tam Sơn, Xã Văn Bán",
      "wardCode": 1587
    },
    {
      "id": 906,
      "code": "0906",
      "name": "Văn Lang",
      "type": "xã",
      "area": 54.06,
      "population": 17949,
      "adminCenter": "Trụ sở UBND xã Văn Lang trước sáp nhập",
      "longitude": 104.99,
      "latitude": 21.5244,
      "beforeMerger": "Xã Vô Tranh, Xã Bằng Giã, Xã Minh Côi, Xã Văn Lang",
      "wardCode": 1562
    },
    {
      "id": 907,
      "code": "0907",
      "name": "Văn Miếu",
      "type": "xã",
      "area": 89.11,
      "population": 18752,
      "adminCenter": "Trụ sở xã Văn Miếu",
      "longitude": 105.167,
      "latitude": 21.0623,
      "beforeMerger": "Xã Tân Lập, Xã Tân Minh (huyện Thanh Sơn), Xã Văn Miếu",
      "wardCode": 1614
    },
    {
      "id": 908,
      "code": "0908",
      "name": "Vân Phú",
      "type": "phường",
      "area": 26.26,
      "population": 37450,
      "adminCenter": "Đường Trường Chinh, khu 3, phường Vân Phú, tỉnh Phú Thọ (trụ sở UBND phường Vân Phú)",
      "longitude": 105.366,
      "latitude": 21.3636,
      "beforeMerger": "Phường Vân Phú, Xã Phượng Lâu, Xã Hùng Lô, Xã Kim Đức",
      "wardCode": 1570
    },
    {
      "id": 909,
      "code": "0909",
      "name": "Vân Sơn",
      "type": "xã",
      "area": 120.53,
      "population": 9197,
      "adminCenter": "Trụ sở UBND xã Vân Sơn",
      "longitude": 105.197,
      "latitude": 20.5458,
      "beforeMerger": "Xã Ngổ Luông, Xã Quyết Chiến, Xã Vân Sơn",
      "wardCode": 1680
    },
    {
      "id": 910,
      "code": "0910",
      "name": "Vạn Xuân",
      "type": "xã",
      "area": 52.43,
      "population": 31353,
      "adminCenter": "Trụ sở xã Vạn Xuân",
      "longitude": 105.227,
      "latitude": 21.3017,
      "beforeMerger": "Xã Quang Húc, Xã Lam Sơn, Xã Vạn Xuân",
      "wardCode": 1612
    },
    {
      "id": 911,
      "code": "0911",
      "name": "Việt Trì",
      "type": "phường",
      "area": 25.83,
      "population": 73006,
      "adminCenter": "1508 đại lộ Hùng Vương, phường Việt Trì, tỉnh Phú Thọ",
      "longitude": 105.399,
      "latitude": 21.3326,
      "beforeMerger": "Phường Tân Dân, Phường Gia Cẩm, Phường Minh Nông, Phường Dữu Lâu, Xã Trưng Vương",
      "wardCode": 1606
    },
    {
      "id": 912,
      "code": "0912",
      "name": "Vĩnh An",
      "type": "xã",
      "area": 21.4,
      "population": 32883,
      "adminCenter": "Trụ sở xã Kim Xá cũ",
      "longitude": 105.511,
      "latitude": 21.3073,
      "beforeMerger": "Xã Kim Xá, Xã Yên Bình, Xã Chấn Hưng",
      "wardCode": 1651
    },
    {
      "id": 913,
      "code": "0913",
      "name": "Vĩnh Chân",
      "type": "xã",
      "area": 27.12,
      "population": 17173,
      "adminCenter": "Trụ sở UBND xã Mai Tùng cũ (tạm thời đặt tại UBND xã Yên Luật do đang sửa chữa)",
      "longitude": 105.052,
      "latitude": 21.522,
      "beforeMerger": "Xã Lang Sơn, Xã Yên Luật, Xã Vĩnh Chân",
      "wardCode": 1563
    },
    {
      "id": 914,
      "code": "0914",
      "name": "Vĩnh Hưng",
      "type": "xã",
      "area": 18.7,
      "population": 38821,
      "adminCenter": "Trụ sở xã Đại Đồng cũ",
      "longitude": 105.495,
      "latitude": 21.2828,
      "beforeMerger": "Xã Nghĩa Hưng, Xã Yên Lập, Xã Đại Đồng",
      "wardCode": 1652
    },
    {
      "id": 915,
      "code": "0915",
      "name": "Vĩnh Phú",
      "type": "xã",
      "area": 34.6,
      "population": 49755,
      "adminCenter": "Trụ sở xã Vĩnh Thịnh cũ",
      "longitude": 105.502,
      "latitude": 21.1776,
      "beforeMerger": "Xã An Nhân, Xã Vĩnh Thịnh, Xã Ngũ Kiên, Xã Vĩnh Phú",
      "wardCode": 1655
    },
    {
      "id": 916,
      "code": "0916",
      "name": "Vĩnh Phúc",
      "type": "phường",
      "area": 25.3,
      "population": 78317,
      "adminCenter": "Đảng ủy-HĐND-UBND: Số 9A, đường Lê Lợi, phường Vĩnh Yên, tỉnh Phú Thọ (Trụ sở Thành ủy Vĩnh Yên cũ)\nTrung tâm hành chính công: 159 đường Trần Phú (trụ sở phường Liên Bảo cũ)",
      "longitude": 105.608,
      "latitude": 21.3178,
      "beforeMerger": "Phường Định Trung, Phường Liên Bảo, Phường Khai Quang, Phường Ngô Quyền, Phường Đống Đa",
      "wardCode": 1622
    },
    {
      "id": 917,
      "code": "0917",
      "name": "Vĩnh Thành",
      "type": "xã",
      "area": 22,
      "population": 35020,
      "adminCenter": "Trụ sở xã Lũng Hòa cũ",
      "longitude": 105.463,
      "latitude": 21.2634,
      "beforeMerger": "Xã Sao Đại Việt, Xã Lũng Hòa, Xã Tân Phú",
      "wardCode": 1653
    },
    {
      "id": 918,
      "code": "0918",
      "name": "Vĩnh Tường",
      "type": "xã",
      "area": 26.2,
      "population": 47315,
      "adminCenter": "Đường Lê Xoay, xã Vĩnh Tường, tỉnh Phú Thọ (Trụ sở UBND huyện Vĩnh Tường cũ)",
      "longitude": 105.52,
      "latitude": 21.2269,
      "beforeMerger": "Thị trấn Vĩnh Tường, Thị trấn Tứ Trưng, Xã Lương Điền, Xã Vũ Di",
      "wardCode": 1650
    },
    {
      "id": 919,
      "code": "0919",
      "name": "Vĩnh Yên",
      "type": "phường",
      "area": 25,
      "population": 56428,
      "adminCenter": "Đảng ủy-HĐND-UBND: Số 9A, đường Lê Lợi, phường Vĩnh Yên, tỉnh Phú Thọ (Trụ sở UBND TP Vĩnh Yên cũ)\nTrung tâm Hành chính công: Số 5 đường Lê Lợi, phường Vĩnh Yên, tỉnh Phú Thọ",
      "longitude": 105.584,
      "latitude": 21.2937,
      "beforeMerger": "Phường Tích Sơn, Phường Hội Hợp, Phường Đồng Tâm, Xã Thanh Trù",
      "wardCode": 1621
    },
    {
      "id": 920,
      "code": "0920",
      "name": "Võ Miếu",
      "type": "xã",
      "area": 96.36,
      "population": 28853,
      "adminCenter": "Trụ sở xã Võ Miếu",
      "longitude": 105.159,
      "latitude": 21.1341,
      "beforeMerger": "Xã Địch Quả, Xã Cự Thắng, Xã Võ Miếu",
      "wardCode": 1595
    },
    {
      "id": 921,
      "code": "0921",
      "name": "Xuân Đài",
      "type": "xã",
      "area": 209.6,
      "population": 15073,
      "adminCenter": "Trụ sở xã Kim Thượng cũ",
      "longitude": 104.97,
      "latitude": 21.1149,
      "beforeMerger": "Xã Kim Thượng, Xã Xuân Sơn, Xã Xuân Đài",
      "wardCode": 1598
    },
    {
      "id": 922,
      "code": "0922",
      "name": "Xuân Hòa",
      "type": "phường",
      "area": 96,
      "population": 55237,
      "adminCenter": "Đường Lê Duẩn, khu Đồng Đầm, phường Xuân Hòa, tỉnh Phú Thọ (Trụ sở xã Ngọc Thanh cũ)",
      "longitude": 105.735,
      "latitude": 21.3408,
      "beforeMerger": "Phường Đồng Xuân, Phường Xuân Hòa, Xã Cao Minh, Xã Ngọc Thanh",
      "wardCode": 1624
    },
    {
      "id": 923,
      "code": "0923",
      "name": "Xuân Lãng",
      "type": "xã",
      "area": 29.9,
      "population": 48186,
      "adminCenter": "Trụ sở thị trấn Đạo Đức cũ",
      "longitude": 105.624,
      "latitude": 21.254,
      "beforeMerger": "Thị trấn Thanh Lãng, Thị trấn Đạo Đức, Xã Tân Phong, Xã Phú Xuân",
      "wardCode": 1644
    },
    {
      "id": 924,
      "code": "0924",
      "name": "Xuân Lũng",
      "type": "xã",
      "area": 24.03,
      "population": 20604,
      "adminCenter": "Trụ sở xã Xuân Lũng",
      "longitude": 105.282,
      "latitude": 21.379,
      "beforeMerger": "Xã Tiên Kiên, Xã Xuân Huy, Xã Xuân Lũng",
      "wardCode": 1585
    },
    {
      "id": 925,
      "code": "0925",
      "name": "Xuân Viên",
      "type": "xã",
      "area": 46.19,
      "population": 14428,
      "adminCenter": "Trụ sở xã Xuân Viên",
      "longitude": 104.993,
      "latitude": 21.4047,
      "beforeMerger": "Xã Xuân Thủy (huyện Yên Lập), Xã Xuân An, Xã Xuân Viên",
      "wardCode": 1572
    },
    {
      "id": 926,
      "code": "0926",
      "name": "Yên Kỳ",
      "type": "xã",
      "area": 53.58,
      "population": 20973,
      "adminCenter": "Trụ sở UBND xã Yên Kỳ trước sáp nhập",
      "longitude": 105.087,
      "latitude": 21.5613,
      "beforeMerger": "Xã Hương Xạ, Xã Phương Viên, Xã Yên Kỳ",
      "wardCode": 1561
    },
    {
      "id": 927,
      "code": "0927",
      "name": "Yên Lạc",
      "type": "xã",
      "area": 21.7,
      "population": 39730,
      "adminCenter": "154 DT305, xã Yên Lạc, tỉnh Phú Thọ (Trụ sở UBND huyện Yên Lạc cũ)",
      "longitude": 105.588,
      "latitude": 21.2559,
      "beforeMerger": "Thị trấn Yên Lạc, Xã Bình Định, Xã Đồng Cương",
      "wardCode": 1645
    },
    {
      "id": 928,
      "code": "0928",
      "name": "Yên Lãng",
      "type": "xã",
      "area": 38.2,
      "population": 18459,
      "adminCenter": "Trụ sở xã Lãng Công cũ",
      "longitude": 105.384,
      "latitude": 21.495,
      "beforeMerger": "Xã Quang Yên, Xã Lãng Công",
      "wardCode": 1626
    },
    {
      "id": 929,
      "code": "0929",
      "name": "Yên Lập",
      "type": "xã",
      "area": 69.05,
      "population": 29678,
      "adminCenter": "Trụ sở HĐND - UBND huyện Yên Lập cũ",
      "longitude": 105.072,
      "latitude": 21.3378,
      "beforeMerger": "Thị trấn Yên Lập, Xã Đồng Thịnh (huyện Yên Lập), Xã Hưng Long, Xã Đồng Lạc",
      "wardCode": 1602
    },
    {
      "id": 930,
      "code": "0930",
      "name": "Yên Phú",
      "type": "xã",
      "area": 63.7,
      "population": 19850,
      "adminCenter": "Trụ sở xã Yên Phú",
      "longitude": 105.487,
      "latitude": 20.4929,
      "beforeMerger": "Xã Bình Hẻm, Xã Xuất Hóa, Xã Yên Phú",
      "wardCode": 1682
    },
    {
      "id": 931,
      "code": "0931",
      "name": "Yên Sơn",
      "type": "xã",
      "area": 75.52,
      "population": 16064,
      "adminCenter": "Trụ sở xã Tinh Nhuệ cũ",
      "longitude": 105.285,
      "latitude": 20.9602,
      "beforeMerger": "Xã Tinh Nhuệ, Xã Lương Nha, Xã Yên Sơn",
      "wardCode": 1576
    },
    {
      "id": 932,
      "code": "0932",
      "name": "Yên Thủy",
      "type": "xã",
      "area": 76.19,
      "population": 24012,
      "adminCenter": "Khu phố Tân Bình, số 26 đường Hùng Vương, xã Yên Thủy, tỉnh Phú Thọ (Trụ sở UBND huyện Yên Thủy cũ)",
      "longitude": 105.602,
      "latitude": 20.3865,
      "beforeMerger": "Thị trấn Hàng Trạm, Xã Lạc Thịnh, Xã Phú Lai",
      "wardCode": 1685
    },
    {
      "id": 933,
      "code": "0933",
      "name": "Yên Trị",
      "type": "xã",
      "area": 89.21,
      "population": 19198,
      "adminCenter": "Trụ sở UBND xã Yên Trị",
      "longitude": 105.678,
      "latitude": 20.3708,
      "beforeMerger": "Xã Đoàn Kết (huyện Yên Thủy), Xã Hữu Lợi, Xã Ngọc Lương, Xã Yên Trị",
      "wardCode": 1681
    }
  ]
}