{
  "provinceId": 26,
  "provinceName": "tỉnh Lâm Đồng",
  "mahc": 26,
  "wards": [
    {
      "id": 2370,
      "code": "2370",
      "name": "1 Bảo Lộc",
      "type": "phường",
      "area": 51.46,
      "population": 55845,
      "adminCenter": "đang cập nhật",
      "longitude": 107.844,
      "latitude": 11.5733,
      "beforeMerger": "Phường 1 (thành phố Bảo Lộc), Phường Lộc Phát, Xã Lộc Thanh",
      "wardCode": 1081
    },
    {
      "id": 2371,
      "code": "2371",
      "name": "2 Bảo Lộc",
      "type": "phường",
      "area": 176.72,
      "population": 49564,
      "adminCenter": "đang cập nhật",
      "longitude": 107.724,
      "latitude": 11.5951,
      "beforeMerger": "Phường 2 (thành phố Bảo Lộc), Xã Lộc Tân, Xã ĐamBri",
      "wardCode": 1083
    },
    {
      "id": 2372,
      "code": "2372",
      "name": "3 Bảo Lộc",
      "type": "phường",
      "area": 108.98,
      "population": 54445,
      "adminCenter": "đang cập nhật",
      "longitude": 107.758,
      "latitude": 11.4975,
      "beforeMerger": "Phường Lộc Tiến, Xã Lộc Châu, Xã Đại Lào",
      "wardCode": 1082
    },
    {
      "id": 2373,
      "code": "2373",
      "name": "B’Lao",
      "type": "phường",
      "area": 33.7679,
      "population": 0,
      "adminCenter": "UBND phường Lộc Sơn và UBND phường B’Lao",
      "longitude": 107.859,
      "latitude": 11.5247,
      "beforeMerger": "Phường Lộc Sơn, Phường B’Lao, Xã Lộc Nga",
      "wardCode": 1084
    },
    {
      "id": 2374,
      "code": "2374",
      "name": "Bắc Bình",
      "type": "xã",
      "area": 148.99,
      "population": 51344,
      "adminCenter": "Thị trấn Chợ Lầu",
      "longitude": 108.541,
      "latitude": 11.2309,
      "beforeMerger": "Thị trấn Chợ Lầu, Xã Phan Hòa, Xã Phan Hiệp, Xã Phan Rí Thành",
      "wardCode": 3091
    },
    {
      "id": 2375,
      "code": "2375",
      "name": "Bắc Gia Nghĩa",
      "type": "phường",
      "area": 250.55,
      "population": 3776,
      "adminCenter": "đang cập nhật",
      "longitude": 107.767,
      "latitude": 12.0523,
      "beforeMerger": "Phường Quảng Thành, Phường Nghĩa Thành, Phường Nghĩa Đức, Xã Đắk Ha",
      "wardCode": 2826
    },
    {
      "id": 2376,
      "code": "2376",
      "name": "Bắc Ruộng",
      "type": "xã",
      "area": 165.33,
      "population": 18949,
      "adminCenter": "Xã Bắc Ruộng",
      "longitude": 107.743,
      "latitude": 11.2741,
      "beforeMerger": "Xã Măng Tố, Xã Bắc Ruộng",
      "wardCode": 3106
    },
    {
      "id": 2377,
      "code": "2377",
      "name": "Bảo Lâm 1",
      "type": "xã",
      "area": 204.43,
      "population": 44151,
      "adminCenter": "Huyện ủy, UBND huyện Bảo Lâm",
      "longitude": 107.85,
      "latitude": 11.6627,
      "beforeMerger": "Thị trấn Lộc Thắng, Xã Lộc Quảng, Xã Lộc Ngãi",
      "wardCode": 1085
    },
    {
      "id": 2378,
      "code": "2378",
      "name": "Bảo Lâm 2",
      "type": "xã",
      "area": 114,
      "population": 33092,
      "adminCenter": "UBND xã Lộc An",
      "longitude": 107.9,
      "latitude": 11.5592,
      "beforeMerger": "Xã Lộc An, Xã Lộc Đức, Xã Tân Lạc",
      "wardCode": 1288
    },
    {
      "id": 2379,
      "code": "2379",
      "name": "Bảo Lâm 3",
      "type": "xã",
      "area": 152.13,
      "population": 32917,
      "adminCenter": "UBND xã Lộc Nam",
      "longitude": 107.836,
      "latitude": 11.4239,
      "beforeMerger": "Xã Lộc Thành, Xã Lộc Nam",
      "wardCode": 1282
    },
    {
      "id": 2380,
      "code": "2380",
      "name": "Bảo Lâm 4",
      "type": "xã",
      "area": 343.35,
      "population": 10073,
      "adminCenter": "UBND xã Lộc Phú",
      "longitude": 107.819,
      "latitude": 11.7873,
      "beforeMerger": "Xã Lộc Phú, Xã Lộc Lâm, Xã B’Lá",
      "wardCode": 1281
    },
    {
      "id": 2381,
      "code": "2381",
      "name": "Bảo Lâm 5",
      "type": "xã",
      "area": 511.88,
      "population": 11596,
      "adminCenter": "UBND xã Lộc Bảo",
      "longitude": 107.643,
      "latitude": 11.7751,
      "beforeMerger": "Xã Lộc Bảo, Xã Lộc Bắc",
      "wardCode": 1280
    },
    {
      "id": 2382,
      "code": "2382",
      "name": "Bảo Thuận",
      "type": "xã",
      "area": 300.3,
      "population": 29557,
      "adminCenter": "UBND xã Đinh Lạc",
      "longitude": 108.14,
      "latitude": 11.4907,
      "beforeMerger": "Xã Đinh Lạc, Xã Tân Nghĩa, Xã Bảo Thuận",
      "wardCode": 440
    },
    {
      "id": 2383,
      "code": "2383",
      "name": "Bình Thuận",
      "type": "phường",
      "area": 45.16,
      "population": 47858,
      "adminCenter": "Xã Phong Nẫm",
      "longitude": 108.054,
      "latitude": 10.9639,
      "beforeMerger": "Phường Phú Tài, Xã Phong Nẫm, Xã Hàm Hiệp",
      "wardCode": 3083
    },
    {
      "id": 2384,
      "code": "2384",
      "name": "Cam Ly - Đà Lạt",
      "type": "phường",
      "area": 80.92,
      "population": 48919,
      "adminCenter": "UBND phường 6, 29 Thi Sách",
      "longitude": 108.369,
      "latitude": 11.9331,
      "beforeMerger": "Phường 5, Phường 6, Xã Tà Nung",
      "wardCode": 182
    },
    {
      "id": 2385,
      "code": "2385",
      "name": "Cát Tiên",
      "type": "xã",
      "area": 78.13,
      "population": 19735,
      "adminCenter": "UBND huyện Cát Tiên",
      "longitude": 107.397,
      "latitude": 11.596,
      "beforeMerger": "Thị trấn Cát Tiên, Xã Nam Ninh, Xã Quảng Ngãi",
      "wardCode": 1062
    },
    {
      "id": 2386,
      "code": "2386",
      "name": "Cát Tiên 2",
      "type": "xã",
      "area": 177.26,
      "population": 15042,
      "adminCenter": "UBND thị trấn Phước Cát",
      "longitude": 107.33,
      "latitude": 11.6699,
      "beforeMerger": "Thị trấn Phước Cát, Xã Phước Cát 2, Xã Đức Phổ",
      "wardCode": 1063
    },
    {
      "id": 2387,
      "code": "2387",
      "name": "Cát Tiên 3",
      "type": "xã",
      "area": 171.31,
      "population": 10591,
      "adminCenter": "UBND xã Tiên Hoàng",
      "longitude": 107.426,
      "latitude": 11.703,
      "beforeMerger": "Xã Gia Viễn, Xã Tiên Hoàng, Xã Đồng Nai Thượng",
      "wardCode": 1080
    },
    {
      "id": 2388,
      "code": "2388",
      "name": "Cư Jút",
      "type": "xã",
      "area": 104.11,
      "population": 49614,
      "adminCenter": "Thị trấn Ea Tling",
      "longitude": 107.85,
      "latitude": 12.5898,
      "beforeMerger": "Thị trấn Ea T’ling, Xã Trúc Sơn, Xã Tâm Thắng, Xã Cư K’nia",
      "wardCode": 2858
    },
    {
      "id": 2389,
      "code": "2389",
      "name": "D’Ran",
      "type": "xã",
      "area": 240.89,
      "population": 33517,
      "adminCenter": "UBND xã Lạc Xuân",
      "longitude": 108.572,
      "latitude": 11.8051,
      "beforeMerger": "Thị trấn D’Ran, Xã Lạc Xuân",
      "wardCode": 279
    },
    {
      "id": 2390,
      "code": "2390",
      "name": "Đạ Huoai",
      "type": "xã",
      "area": 113.96,
      "population": 23117,
      "adminCenter": "UBND huyện Đạ Huoai",
      "longitude": 107.536,
      "latitude": 11.4294,
      "beforeMerger": "Thị trấn Mađaguôi, Xã Mađaguôi, Xã Đạ Oai",
      "wardCode": 1289
    },
    {
      "id": 2391,
      "code": "2391",
      "name": "Đạ Huoai 2",
      "type": "xã",
      "area": 249.57,
      "population": 14929,
      "adminCenter": "UBND thị trấn Đạ M'Ri",
      "longitude": 107.645,
      "latitude": 11.4586,
      "beforeMerger": "Thị trấn Đạ M’ri, Xã Hà Lâm",
      "wardCode": 1283
    },
    {
      "id": 2392,
      "code": "2392",
      "name": "Đạ Huoai 3",
      "type": "xã",
      "area": 131.51,
      "population": 6571,
      "adminCenter": "UBND xã Bà Gia",
      "longitude": 107.704,
      "latitude": 11.3776,
      "beforeMerger": "xã Bà Gia",
      "wardCode": 1290
    },
    {
      "id": 2393,
      "code": "2393",
      "name": "Đạ Tẻh",
      "type": "xã",
      "area": 145.85,
      "population": 30725,
      "adminCenter": "UBND huyện Đạ Huoai",
      "longitude": 107.426,
      "latitude": 11.5589,
      "beforeMerger": "Thị trấn Đạ Tẻh, Xã An Nhơn, Xã Đạ Lây",
      "wardCode": 1061
    },
    {
      "id": 2394,
      "code": "2394",
      "name": "Đạ Tẻh 2",
      "type": "xã",
      "area": 186.07,
      "population": 1459,
      "adminCenter": "UBND xã Quảng Trị",
      "longitude": 107.551,
      "latitude": 11.5209,
      "beforeMerger": "Xã Quảng Trị, Xã Đạ Pal, Xã Đạ Kho",
      "wardCode": 1285
    },
    {
      "id": 2395,
      "code": "2395",
      "name": "Đạ Tẻh 3",
      "type": "xã",
      "area": 194.82,
      "population": 11678,
      "adminCenter": "UBND xã Mỹ Đức",
      "longitude": 107.544,
      "latitude": 11.6213,
      "beforeMerger": "Xã Mỹ Đức, Xã Quốc Oai",
      "wardCode": 1284
    },
    {
      "id": 2396,
      "code": "2396",
      "name": "Đắk Mil",
      "type": "xã",
      "area": 213.76,
      "population": 31579,
      "adminCenter": "Xã Đắk R'la",
      "longitude": 107.752,
      "latitude": 12.5418,
      "beforeMerger": "Xã Đắk Gằn, Xã Đắk N’Drót, Xã Đắk R’La",
      "wardCode": 2820
    },
    {
      "id": 2397,
      "code": "2397",
      "name": "Đắk Sắk",
      "type": "xã",
      "area": 99,
      "population": 28058,
      "adminCenter": "Xã Long Sơn",
      "longitude": 107.735,
      "latitude": 12.4476,
      "beforeMerger": "Xã Nam Xuân, Xã Long Sơn, Xã Đắk Sắk",
      "wardCode": 2821
    },
    {
      "id": 2398,
      "code": "2398",
      "name": "Đắk Song",
      "type": "xã",
      "area": 193.208,
      "population": 0,
      "adminCenter": "Xã Đắk Môl",
      "longitude": 107.687,
      "latitude": 12.3222,
      "beforeMerger": "Xã Đắk Môl, Xã Đắk Hòa",
      "wardCode": 2849
    },
    {
      "id": 2399,
      "code": "2399",
      "name": "Đắk Wil",
      "type": "xã",
      "area": 515.16,
      "population": 24344,
      "adminCenter": "Xã Ea Pô",
      "longitude": 107.727,
      "latitude": 12.722,
      "beforeMerger": "Xã Ea Pô, Xã Đắk Wil",
      "wardCode": 2814
    },
    {
      "id": 2400,
      "code": "2400",
      "name": "Đam Rông 1",
      "type": "xã",
      "area": 172.55,
      "population": 17265,
      "adminCenter": "UBND xã Phi Liêng",
      "longitude": 108.117,
      "latitude": 11.9391,
      "beforeMerger": "Xã Phi Liêng, Xã Đạ K’Nàng",
      "wardCode": 277
    },
    {
      "id": 2401,
      "code": "2401",
      "name": "Đam Rông 2",
      "type": "xã",
      "area": 365.58,
      "population": 16253,
      "adminCenter": "Trung tâm hành chính huyện Đam Rông",
      "longitude": 108.109,
      "latitude": 12.0533,
      "beforeMerger": "Xã Rô Men, Xã Liêng Srônh",
      "wardCode": 122
    },
    {
      "id": 2402,
      "code": "2402",
      "name": "Đam Rông 3",
      "type": "xã",
      "area": 139.38,
      "population": 15841,
      "adminCenter": "UBND xã Đạ Rsal",
      "longitude": 108.178,
      "latitude": 12.1616,
      "beforeMerger": "Xã Đạ Rsal, Xã Đạ M’Rông",
      "wardCode": 146
    },
    {
      "id": 2403,
      "code": "2403",
      "name": "Đam Rông 4",
      "type": "xã",
      "area": 391.25,
      "population": 17184,
      "adminCenter": "UBND xã Đạ Tông",
      "longitude": 108.367,
      "latitude": 12.1741,
      "beforeMerger": "Xã Đạ Tông, Xã Đạ Long, Xã Đưng K’Nớ",
      "wardCode": 145
    },
    {
      "id": 2404,
      "code": "2404",
      "name": "Di Linh",
      "type": "xã",
      "area": 268.28,
      "population": 64179,
      "adminCenter": "HĐND và UBND huyện Di Linh",
      "longitude": 108.046,
      "latitude": 11.5354,
      "beforeMerger": "Thị trấn Di Linh, Xã Liên Đầm, Xã Tân Châu, Xã Gung Ré",
      "wardCode": 144
    },
    {
      "id": 2405,
      "code": "2405",
      "name": "Đinh Trang Thượng",
      "type": "xã",
      "area": 203.77,
      "population": 20568,
      "adminCenter": "UBND xã Tân Lâm",
      "longitude": 107.984,
      "latitude": 11.7091,
      "beforeMerger": "Xã Tân Lâm, Xã Tân Thượng, Xã Đinh Trang Thượng",
      "wardCode": 443
    },
    {
      "id": 2406,
      "code": "2406",
      "name": "Đinh Văn Lâm Hà",
      "type": "xã",
      "area": 90.1789,
      "population": 0,
      "adminCenter": "Trụ sở huyện ủy, UBND huyện Lâm Hà",
      "longitude": 108.25,
      "latitude": 11.7769,
      "beforeMerger": "Xã Bình Thạnh (huyện Đức Trọng), Xã Tân Văn, Thị trấn Đinh Văn",
      "wardCode": 274
    },
    {
      "id": 2407,
      "code": "2407",
      "name": "Đơn Dương",
      "type": "xã",
      "area": 127.81,
      "population": 4516,
      "adminCenter": "UBND huyện Đơn Dương",
      "longitude": 108.453,
      "latitude": 11.7306,
      "beforeMerger": "Thị trấn Thạnh Mỹ, Xã Đạ Ròn, Xã Tu Tra",
      "wardCode": 288
    },
    {
      "id": 2408,
      "code": "2408",
      "name": "Đông Gia Nghĩa",
      "type": "phường",
      "area": 105.78,
      "population": 24199,
      "adminCenter": "Phường Nghĩa Trung",
      "longitude": 107.718,
      "latitude": 11.9548,
      "beforeMerger": "Phường Nghĩa Trung, Xã Đắk Nia",
      "wardCode": 2828
    },
    {
      "id": 2409,
      "code": "2409",
      "name": "Đông Giang",
      "type": "xã",
      "area": 205.23,
      "population": 5131,
      "adminCenter": "Xã Đông Giang",
      "longitude": 108.01,
      "latitude": 11.2615,
      "beforeMerger": "Xã Đông Tiến, Xã Đông Giang",
      "wardCode": 3078
    },
    {
      "id": 2410,
      "code": "2410",
      "name": "Đồng Kho",
      "type": "xã",
      "area": 268.72,
      "population": 30885,
      "adminCenter": "Xã Đồng Kho",
      "longitude": 107.769,
      "latitude": 11.1685,
      "beforeMerger": "Xã Huy Khiêm, Xã La Ngâu, Xã Đức Bình, Xã Đồng Kho",
      "wardCode": 3108
    },
    {
      "id": 2411,
      "code": "2411",
      "name": "Đức An",
      "type": "xã",
      "area": 161.02,
      "population": 33178,
      "adminCenter": "Thị trấn Đức An",
      "longitude": 107.606,
      "latitude": 12.2813,
      "beforeMerger": "Thị trấn Đức An, Xã Đắk N’Drung, Xã Nam Bình",
      "wardCode": 2848
    },
    {
      "id": 2412,
      "code": "2412",
      "name": "Đức Lập",
      "type": "xã",
      "area": 59.41,
      "population": 31722,
      "adminCenter": "Thị trấn Đắk Mil",
      "longitude": 107.627,
      "latitude": 12.4162,
      "beforeMerger": "Thị trấn Đắk Mil, Xã Đức Mạnh, Xã Đức Minh",
      "wardCode": 2818
    },
    {
      "id": 2413,
      "code": "2413",
      "name": "Đức Linh",
      "type": "xã",
      "area": 103.27,
      "population": 51099,
      "adminCenter": "Thị trấn Võ Xu",
      "longitude": 107.552,
      "latitude": 11.1834,
      "beforeMerger": "Thị trấn Võ Xu, Xã Nam Chính, Xã Vũ Hòa",
      "wardCode": 3110
    },
    {
      "id": 2414,
      "code": "2414",
      "name": "Đức Trọng",
      "type": "xã",
      "area": 148.78,
      "population": 85163,
      "adminCenter": "UBND huyện Đức Trọng",
      "longitude": 108.361,
      "latitude": 11.6788,
      "beforeMerger": "Thị trấn Liên Nghĩa, Xã Phú Hội",
      "wardCode": 344
    },
    {
      "id": 2415,
      "code": "2415",
      "name": "Gia Hiệp",
      "type": "xã",
      "area": 324.43,
      "population": 21462,
      "adminCenter": "UBND xã Tam Bố",
      "longitude": 108.217,
      "latitude": 11.5038,
      "beforeMerger": "Xã Tam Bố, Xã Gia Hiệp",
      "wardCode": 441
    },
    {
      "id": 2416,
      "code": "2416",
      "name": "Hải Ninh",
      "type": "xã",
      "area": 289.99,
      "population": 19422,
      "adminCenter": "Xã Hải Ninh",
      "longitude": 108.492,
      "latitude": 11.3055,
      "beforeMerger": "Xã Bình An, Xã Phan Điền, Xã Hải Ninh",
      "wardCode": 3093
    },
    {
      "id": 2417,
      "code": "2417",
      "name": "Hàm Kiệm",
      "type": "xã",
      "area": 162.09,
      "population": 31445,
      "adminCenter": "Xã Hàm Kiệm",
      "longitude": 107.964,
      "latitude": 10.9121,
      "beforeMerger": "Xã Mương Mán, Xã Hàm Cường, Xã Hàm Kiệm",
      "wardCode": 3103
    },
    {
      "id": 2418,
      "code": "2418",
      "name": "Hàm Liêm",
      "type": "xã",
      "area": 113.81,
      "population": 31253,
      "adminCenter": "Xã Hàm Liêm",
      "longitude": 108.08,
      "latitude": 11.02,
      "beforeMerger": "Xã Hàm Chính, Xã Hàm Liêm",
      "wardCode": 3099
    },
    {
      "id": 2419,
      "code": "2419",
      "name": "Hàm Tân",
      "type": "xã",
      "area": 198.46,
      "population": 35209,
      "adminCenter": "Thị trấn Tân Nghĩa",
      "longitude": 107.689,
      "latitude": 10.7632,
      "beforeMerger": "Xã Tân Hà (huyện Hàm Tân), Xã Tân Xuân, Thị trấn Tân Nghĩa",
      "wardCode": 3117
    },
    {
      "id": 2420,
      "code": "2420",
      "name": "Hàm Thắng",
      "type": "phường",
      "area": 44.9,
      "population": 54544,
      "adminCenter": "Phường Xuân An",
      "longitude": 108.147,
      "latitude": 10.9713,
      "beforeMerger": "Phường Xuân An, Thị trấn Phú Long, Xã Hàm Thắng",
      "wardCode": 3085
    },
    {
      "id": 2421,
      "code": "2421",
      "name": "Hàm Thạnh",
      "type": "xã",
      "area": 440.7,
      "population": 16306,
      "adminCenter": "Xã Hàm Thạnh",
      "longitude": 107.892,
      "latitude": 11.0556,
      "beforeMerger": "Xã Mỹ Thạnh, Xã Hàm Cần, Xã Hàm Thạnh",
      "wardCode": 3102
    },
    {
      "id": 2422,
      "code": "2422",
      "name": "Hàm Thuận",
      "type": "xã",
      "area": 198.36,
      "population": 5068,
      "adminCenter": "Thị trấn Ma Lâm",
      "longitude": 107.997,
      "latitude": 11.1128,
      "beforeMerger": "Thị trấn Ma Lâm, Xã Thuận Minh, Xã Hàm Đức",
      "wardCode": 3079
    },
    {
      "id": 2423,
      "code": "2423",
      "name": "Hàm Thuận Bắc",
      "type": "xã",
      "area": 292.7,
      "population": 29855,
      "adminCenter": "Xã Hàm Trí",
      "longitude": 108.102,
      "latitude": 11.1748,
      "beforeMerger": "Xã Thuận Hòa, Xã Hàm Trí, Xã Hàm Phú",
      "wardCode": 3175
    },
    {
      "id": 2424,
      "code": "2424",
      "name": "Hàm Thuận Nam",
      "type": "xã",
      "area": 111.82,
      "population": 32771,
      "adminCenter": "Thị trấn Thuận Nam",
      "longitude": 107.909,
      "latitude": 10.8473,
      "beforeMerger": "Thị trấn Thuận Nam, Xã Hàm Minh",
      "wardCode": 3101
    },
    {
      "id": 2425,
      "code": "2425",
      "name": "Hiệp Thạnh",
      "type": "xã",
      "area": 127.19,
      "population": 5131,
      "adminCenter": "UBND xã Hiệp Thạnh",
      "longitude": 108.42,
      "latitude": 11.8075,
      "beforeMerger": "Xã Hiệp An, Xã Liên Hiệp, Xã Hiệp Thạnh",
      "wardCode": 345
    },
    {
      "id": 2426,
      "code": "2426",
      "name": "Hòa Bắc",
      "type": "xã",
      "area": 159.35,
      "population": 19979,
      "adminCenter": "UBND xã Hòa Nam",
      "longitude": 107.944,
      "latitude": 11.4303,
      "beforeMerger": "Xã Hòa Nam, Xã Hòa Bắc",
      "wardCode": 1287
    },
    {
      "id": 2427,
      "code": "2427",
      "name": "Hòa Ninh",
      "type": "xã",
      "area": 95.17,
      "population": 31904,
      "adminCenter": "UBND xã Hòa Ninh",
      "longitude": 107.954,
      "latitude": 11.5437,
      "beforeMerger": "Xã Đinh Trang Hòa, Xã Hòa Trung, Xã Hòa Ninh",
      "wardCode": 1286
    },
    {
      "id": 2428,
      "code": "2428",
      "name": "Hòa Thắng",
      "type": "xã",
      "area": 328.09,
      "population": 11558,
      "adminCenter": "Xã Hòa Thắng",
      "longitude": 108.371,
      "latitude": 11.0865,
      "beforeMerger": "Xã Hồng Phong, Xã Hòa Thắng",
      "wardCode": 3097
    },
    {
      "id": 2429,
      "code": "2429",
      "name": "Hoài Đức",
      "type": "xã",
      "area": 105.04,
      "population": 47509,
      "adminCenter": "Thị trấn Đức Tài",
      "longitude": 107.497,
      "latitude": 11.1446,
      "beforeMerger": "Thị trấn Đức Tài, Xã Đức Tín, Xã Đức Hạnh",
      "wardCode": 3112
    },
    {
      "id": 2430,
      "code": "2430",
      "name": "Hồng Sơn",
      "type": "xã",
      "area": 189.01,
      "population": 29875,
      "adminCenter": "Xã Hồng Sơn",
      "longitude": 108.228,
      "latitude": 11.1181,
      "beforeMerger": "Xã Hồng Liêm, Xã Hồng Sơn",
      "wardCode": 3098
    },
    {
      "id": 2431,
      "code": "2431",
      "name": "Hồng Thái",
      "type": "xã",
      "area": 101.64,
      "population": 25049,
      "adminCenter": "Xã Hồng Thái",
      "longitude": 108.445,
      "latitude": 11.1977,
      "beforeMerger": "Xã Phan Thanh, Xã Hồng Thái, Xã Hòa Thắng",
      "wardCode": 3096
    },
    {
      "id": 2432,
      "code": "2432",
      "name": "Ka Đô",
      "type": "xã",
      "area": 108.08,
      "population": 27954,
      "adminCenter": "UBND xã Ka Đô",
      "longitude": 108.593,
      "latitude": 11.7266,
      "beforeMerger": "Xã Lạc Lâm, Xã Ka Đô",
      "wardCode": 342
    },
    {
      "id": 2433,
      "code": "2433",
      "name": "Kiến Đức",
      "type": "xã",
      "area": 167.63,
      "population": 38928,
      "adminCenter": "Thị trấn Kiến Đức",
      "longitude": 107.541,
      "latitude": 11.9042,
      "beforeMerger": "Thị trấn Kiến Đức, Xã Đạo Nghĩa, Xã Nghĩa Thắng, Xã Kiến Thành",
      "wardCode": 2783
    },
    {
      "id": 2434,
      "code": "2434",
      "name": "Krông Nô",
      "type": "xã",
      "area": 159.82,
      "population": 22636,
      "adminCenter": "Thị trấn Đắk Mâm",
      "longitude": 107.827,
      "latitude": 12.4378,
      "beforeMerger": "Xã Tân Thành (huyện Krông Nô), Xã Đắk Drô, Thị trấn Đắk Mâm",
      "wardCode": 2823
    },
    {
      "id": 2435,
      "code": "2435",
      "name": "La Dạ",
      "type": "xã",
      "area": 264.17,
      "population": 9435,
      "adminCenter": "Xã La Dạ",
      "longitude": 107.888,
      "latitude": 11.2751,
      "beforeMerger": "Xã Đa Mi, Xã La Dạ",
      "wardCode": 3100
    },
    {
      "id": 2436,
      "code": "2436",
      "name": "La Gi",
      "type": "phường",
      "area": 68.47,
      "population": 60549,
      "adminCenter": "Phường Tân An",
      "longitude": 107.77,
      "latitude": 10.7177,
      "beforeMerger": "Phường Tân An, Phường Bình Tân, Phường Tân Thiện, Xã Tân Bình",
      "wardCode": 3116
    },
    {
      "id": 2437,
      "code": "2437",
      "name": "Lạc Dương",
      "type": "xã",
      "area": 828.01,
      "population": 14912,
      "adminCenter": "Trường THCS - THPT Đạ Nhim",
      "longitude": 108.596,
      "latitude": 12.1288,
      "beforeMerger": "Xã Đạ Sar, Xã Đạ Nhim, Xã Đạ Chais",
      "wardCode": 184
    },
    {
      "id": 2438,
      "code": "2438",
      "name": "Lâm Viên - Đà Lạt",
      "type": "phường",
      "area": 35.03,
      "population": 71369,
      "adminCenter": "UBND phường 9, đường - 09 đường Quang Trung",
      "longitude": 108.466,
      "latitude": 11.9746,
      "beforeMerger": "Phường 8, Phường 9, Phường 12",
      "wardCode": 180
    },
    {
      "id": 2439,
      "code": "2439",
      "name": "Lang Biang - Đà Lạt",
      "type": "phường",
      "area": 323.739,
      "population": 0,
      "adminCenter": "Trụ sở huyện ủy, HĐND và UBND huyện Lạc Dương",
      "longitude": 108.402,
      "latitude": 12.0564,
      "beforeMerger": "Phường 7, Thị trấn Lạc Dương, Xã Lát",
      "wardCode": 177
    },
    {
      "id": 2440,
      "code": "2440",
      "name": "Liên Hương",
      "type": "xã",
      "area": 128.23,
      "population": 70737,
      "adminCenter": "đang cập nhật",
      "longitude": 108.699,
      "latitude": 11.2607,
      "beforeMerger": "Thị trấn Liên Hương, Xã Bình Thạnh (huyện Tuy Phong), Xã Phước Thể, Xã Phú Lạc",
      "wardCode": 3087
    },
    {
      "id": 2441,
      "code": "2441",
      "name": "Lương Sơn",
      "type": "xã",
      "area": 159.21,
      "population": 23912,
      "adminCenter": "Thị trấn Lương Sơn",
      "longitude": 108.35,
      "latitude": 11.2581,
      "beforeMerger": "Thị trấn Lương Sơn, Xã Sông Bình",
      "wardCode": 3095
    },
    {
      "id": 2442,
      "code": "2442",
      "name": "Mũi Né",
      "type": "phường",
      "area": 118.59,
      "population": 50166,
      "adminCenter": "Phường Hàm Tiến",
      "longitude": 108.263,
      "latitude": 10.9792,
      "beforeMerger": "Phường Hàm Tiến, Phường Mũi Né, Xã Thiện Nghiệp",
      "wardCode": 3081
    },
    {
      "id": 2443,
      "code": "2443",
      "name": "Nam Ban Lâm Hà",
      "type": "xã",
      "area": 117.926,
      "population": 0,
      "adminCenter": "UBND thị trấn Nam Ban",
      "longitude": 108.35,
      "latitude": 11.8518,
      "beforeMerger": "Thị trấn Nam Ban, Xã Đông Thanh, Xã Mê Linh, Xã Gia Lâm",
      "wardCode": 273
    },
    {
      "id": 2444,
      "code": "2444",
      "name": "Nam Đà",
      "type": "xã",
      "area": 132.69,
      "population": 2152,
      "adminCenter": "Xã Nam Đà",
      "longitude": 107.914,
      "latitude": 12.4909,
      "beforeMerger": "Xã Buôn Choáh, Xã Đắk Sôr, Xã Nam Đà",
      "wardCode": 2824
    },
    {
      "id": 2445,
      "code": "2445",
      "name": "Nam Dong",
      "type": "xã",
      "area": 104.04,
      "population": 35701,
      "adminCenter": "Xã Nam Dong",
      "longitude": 107.828,
      "latitude": 12.6442,
      "beforeMerger": "Xã Đắk D’rông, Xã Nam Dong",
      "wardCode": 2815
    },
    {
      "id": 2446,
      "code": "2446",
      "name": "Nam Gia Nghĩa",
      "type": "phường",
      "area": 80.58,
      "population": 2365,
      "adminCenter": "Phường Nghĩa Tân",
      "longitude": 107.632,
      "latitude": 12.0199,
      "beforeMerger": "Phường Nghĩa Phú, Phường Nghĩa Tân, Xã Đắk R’Moan",
      "wardCode": 2827
    },
    {
      "id": 2447,
      "code": "2447",
      "name": "Nam Hà Lâm Hà",
      "type": "xã",
      "area": 100.366,
      "population": 0,
      "adminCenter": "UBND Phi Tô",
      "longitude": 108.275,
      "latitude": 11.8846,
      "beforeMerger": "Xã Nam Hà, Xã Phi Tô",
      "wardCode": 276
    },
    {
      "id": 2448,
      "code": "2448",
      "name": "Nâm Nung",
      "type": "xã",
      "area": 219.66,
      "population": 19655,
      "adminCenter": "Xã Nâm Nung",
      "longitude": 107.828,
      "latitude": 12.3442,
      "beforeMerger": "Xã Nâm N’Đir, Xã Nâm Nung",
      "wardCode": 2847
    },
    {
      "id": 2449,
      "code": "2449",
      "name": "Nam Thành",
      "type": "xã",
      "area": 201.78,
      "population": 37497,
      "adminCenter": "Xã Sùng Nhơn",
      "longitude": 107.589,
      "latitude": 11.2889,
      "beforeMerger": "Xã Mê Pu, Xã Sùng Nhơn, Xã Đa Kai",
      "wardCode": 3111
    },
    {
      "id": 2450,
      "code": "2450",
      "name": "Nghị Đức",
      "type": "xã",
      "area": 114.97,
      "population": 20737,
      "adminCenter": "Xã Nghị Đức",
      "longitude": 107.682,
      "latitude": 11.2726,
      "beforeMerger": "Xã Đức Phú, Xã Nghị Đức",
      "wardCode": 3107
    },
    {
      "id": 2451,
      "code": "2451",
      "name": "Nhân Cơ",
      "type": "xã",
      "area": 158.05,
      "population": 27898,
      "adminCenter": "Xã Nhân Cơ",
      "longitude": 107.597,
      "latitude": 11.954,
      "beforeMerger": "Xã Nhân Đạo, Xã Đắk Wer, Xã Nhân Cơ",
      "wardCode": 2829
    },
    {
      "id": 2452,
      "code": "2452",
      "name": "Ninh Gia",
      "type": "xã",
      "area": 143.83,
      "population": 16311,
      "adminCenter": "UBND xã Ninh Gia",
      "longitude": 108.27,
      "latitude": 11.6107,
      "beforeMerger": "Không sáp nhập",
      "wardCode": 347
    },
    {
      "id": 2453,
      "code": "2453",
      "name": "Phan Rí Cửa",
      "type": "xã",
      "area": 67.67,
      "population": 86813,
      "adminCenter": "Thị trấn Phan Ría Cửa",
      "longitude": 108.592,
      "latitude": 11.2002,
      "beforeMerger": "Thị trấn Phan Rí Cửa, Xã Chí Công, Xã Hòa Minh, Xã Phong Phú",
      "wardCode": 3088
    },
    {
      "id": 2454,
      "code": "2454",
      "name": "Phan Sơn",
      "type": "xã",
      "area": 584.52,
      "population": 7428,
      "adminCenter": "Xã Phan Sơn",
      "longitude": 108.397,
      "latitude": 11.4297,
      "beforeMerger": "Xã Phan Lâm, Xã Phan Sơn",
      "wardCode": 3092
    },
    {
      "id": 2455,
      "code": "2455",
      "name": "Phan Thiết",
      "type": "phường",
      "area": 4.46,
      "population": 85493,
      "adminCenter": "Phường Lạc Đạo",
      "longitude": 108.097,
      "latitude": 10.9279,
      "beforeMerger": "Phường Phú Trinh, Phường Lạc Đạo, Phường Bình Hưng",
      "wardCode": 3084
    },
    {
      "id": 2456,
      "code": "2456",
      "name": "Phú Quý",
      "type": "đặc khu",
      "area": 17.4,
      "population": 0,
      "adminCenter": "Xã Ngũ Phụng",
      "longitude": 108.944,
      "latitude": 10.5289,
      "beforeMerger": "Xã Long Hải, Xã Ngũ Phụng, Xã Tam Thanh",
      "wardCode": 3311
    },
    {
      "id": 2457,
      "code": "2457",
      "name": "Phú Sơn Lâm Hà",
      "type": "xã",
      "area": 240.61,
      "population": 0,
      "adminCenter": "UBND xã Đạ Đờn",
      "longitude": 108.194,
      "latitude": 11.8906,
      "beforeMerger": "Xã Phú Sơn, Xã Đạ Đờn",
      "wardCode": 275
    },
    {
      "id": 2458,
      "code": "2458",
      "name": "Phú Thủy",
      "type": "phường",
      "area": 17.3435,
      "population": 0,
      "adminCenter": "Phường Phú Thủy",
      "longitude": 108.168,
      "latitude": 10.9422,
      "beforeMerger": "Phường Thanh Hải, Phường Phú Hài, Phường Phú Thủy",
      "wardCode": 3082
    },
    {
      "id": 2459,
      "code": "2459",
      "name": "Phúc Thọ Lâm Hà",
      "type": "xã",
      "area": 231.137,
      "population": 0,
      "adminCenter": "UBND xã Tân Thanh",
      "longitude": 108.082,
      "latitude": 11.7837,
      "beforeMerger": "Xã Phúc Thọ, Xã Tân Thanh",
      "wardCode": 143
    },
    {
      "id": 2460,
      "code": "2460",
      "name": "Phước Hội",
      "type": "phường",
      "area": 38.09,
      "population": 4948,
      "adminCenter": "Phường Phước Hội",
      "longitude": 107.731,
      "latitude": 10.6677,
      "beforeMerger": "Phường Phước Lộc, Phường Phước Hội, Xã Tân Phước",
      "wardCode": 3115
    },
    {
      "id": 2461,
      "code": "2461",
      "name": "Quảng Hòa",
      "type": "xã",
      "area": 85.44,
      "population": 8594,
      "adminCenter": "Xã Quảng Hòa",
      "longitude": 108.053,
      "latitude": 12.1654,
      "beforeMerger": "Không sáp nhập",
      "wardCode": 2785
    },
    {
      "id": 2462,
      "code": "2462",
      "name": "Quảng Khê",
      "type": "xã",
      "area": 224.29,
      "population": 17825,
      "adminCenter": "Xã Quảng Khê",
      "longitude": 107.828,
      "latitude": 11.9239,
      "beforeMerger": "Xã Đắk Plao, Xã Quảng Khê",
      "wardCode": 2831
    },
    {
      "id": 2463,
      "code": "2463",
      "name": "Quảng Lập",
      "type": "xã",
      "area": 135.08,
      "population": 24898,
      "adminCenter": "UBND xã Quảng Lập",
      "longitude": 108.518,
      "latitude": 11.7111,
      "beforeMerger": "Xã Ka Đơn, Xã Quảng Lập",
      "wardCode": 343
    },
    {
      "id": 2464,
      "code": "2464",
      "name": "Quảng Phú",
      "type": "xã",
      "area": 263.58,
      "population": 17573,
      "adminCenter": "Xã Quảng Phú",
      "longitude": 107.949,
      "latitude": 12.2903,
      "beforeMerger": "Xã Đức Xuyên, Xã Đắk Nang, Xã Quảng Phú",
      "wardCode": 2825
    },
    {
      "id": 2465,
      "code": "2465",
      "name": "Quảng Sơn",
      "type": "xã",
      "area": 454.22,
      "population": 22018,
      "adminCenter": "Quảng Sơn",
      "longitude": 107.874,
      "latitude": 12.1706,
      "beforeMerger": "Không sáp nhập",
      "wardCode": 2784
    },
    {
      "id": 2466,
      "code": "2466",
      "name": "Quảng Tân",
      "type": "xã",
      "area": 294.18,
      "population": 31185,
      "adminCenter": "Xã Quảng Tân",
      "longitude": 107.385,
      "latitude": 12.0368,
      "beforeMerger": "Xã Đắk Ngo, Xã Quảng Tân",
      "wardCode": 2857
    },
    {
      "id": 2467,
      "code": "2467",
      "name": "Quảng Tín",
      "type": "xã",
      "area": 310.17,
      "population": 34591,
      "adminCenter": "Xã Đắk Sin",
      "longitude": 107.461,
      "latitude": 11.8706,
      "beforeMerger": "Xã Đắk Sin, Xã Hưng Bình, Xã Đắk Ru, Xã Quảng Tín",
      "wardCode": 2856
    },
    {
      "id": 2468,
      "code": "2468",
      "name": "Quảng Trực",
      "type": "xã",
      "area": 558.78,
      "population": 11168,
      "adminCenter": "Xã Quảng Trực",
      "longitude": 107.305,
      "latitude": 12.1846,
      "beforeMerger": "Không sáp nhập",
      "wardCode": 2854
    },
    {
      "id": 2469,
      "code": "2469",
      "name": "Sơn Điền",
      "type": "xã",
      "area": 261.88,
      "population": 731,
      "adminCenter": "UBND xã Gia Bắc",
      "longitude": 108.065,
      "latitude": 11.3495,
      "beforeMerger": "Xã Gia Bắc, Xã Sơn Điền",
      "wardCode": 442
    },
    {
      "id": 2470,
      "code": "2470",
      "name": "Sơn Mỹ",
      "type": "xã",
      "area": 254.52,
      "population": 26599,
      "adminCenter": "Xã Sơn Mỹ",
      "longitude": 107.607,
      "latitude": 10.6736,
      "beforeMerger": "Xã Tân Thắng, Xã Thắng Hải, Xã Sơn Mỹ",
      "wardCode": 3119
    },
    {
      "id": 2471,
      "code": "2471",
      "name": "Sông Lũy",
      "type": "xã",
      "area": 253.33,
      "population": 21243,
      "adminCenter": "Xã Sông Lũy",
      "longitude": 108.242,
      "latitude": 11.2374,
      "beforeMerger": "Xã Phan Tiến, Xã Bình Tân, Xã Sông Lũy",
      "wardCode": 3094
    },
    {
      "id": 2472,
      "code": "2472",
      "name": "Suối Kiết",
      "type": "xã",
      "area": 378.61,
      "population": 16656,
      "adminCenter": "Xã Suối Kiết",
      "longitude": 107.599,
      "latitude": 11.0005,
      "beforeMerger": "Xã Gia Huynh, Xã Suối Kiết",
      "wardCode": 3109
    },
    {
      "id": 2473,
      "code": "2473",
      "name": "Tà Đùng",
      "type": "xã",
      "area": 531.33,
      "population": 22703,
      "adminCenter": "Xã Đắk Som",
      "longitude": 107.978,
      "latitude": 11.9218,
      "beforeMerger": "Xã Đắk Som, Xã Đắk R’Măng",
      "wardCode": 2830
    },
    {
      "id": 2474,
      "code": "2474",
      "name": "Tà Hine",
      "type": "xã",
      "area": 128.69,
      "population": 23027,
      "adminCenter": "UBND xã Tà Hine",
      "longitude": 108.364,
      "latitude": 11.5676,
      "beforeMerger": "Xã Ninh Loan, Xã Đà Loan, Xã Tà Hine",
      "wardCode": 439
    },
    {
      "id": 2475,
      "code": "2475",
      "name": "Tà Năng",
      "type": "xã",
      "area": 258.33,
      "population": 13077,
      "adminCenter": "UBND xã Tà Năng",
      "longitude": 108.494,
      "latitude": 11.5905,
      "beforeMerger": "Xã Đa Quyn, Xã Tà Năng",
      "wardCode": 438
    },
    {
      "id": 2476,
      "code": "2476",
      "name": "Tân Hà Lâm Hà",
      "type": "xã",
      "area": 168.9,
      "population": 0,
      "adminCenter": "UBND xã Tân Hà",
      "longitude": 108.164,
      "latitude": 11.7119,
      "beforeMerger": "Xã Tân Hà (huyện Lâm Hà), Xã Hoài Đức, Xã Đan Phượng, Xã Liên Hà",
      "wardCode": 278
    },
    {
      "id": 2477,
      "code": "2477",
      "name": "Tân Hải",
      "type": "xã",
      "area": 77.18,
      "population": 25626,
      "adminCenter": "Xã Tân Tiến",
      "longitude": 107.825,
      "latitude": 10.7449,
      "beforeMerger": "Xã Tân Tiến, Xã Tân Hải",
      "wardCode": 3118
    },
    {
      "id": 2478,
      "code": "2478",
      "name": "Tân Hội",
      "type": "xã",
      "area": 146.28,
      "population": 4945,
      "adminCenter": "Trụ sở UBND xã Tân Hội",
      "longitude": 108.29,
      "latitude": 11.7135,
      "beforeMerger": "Xã Tân Thành (huyện Đức Trọng), Xã N’ Thôn Hạ, Xã Tân Hội",
      "wardCode": 346
    },
    {
      "id": 2479,
      "code": "2479",
      "name": "Tân Lập",
      "type": "xã",
      "area": 257.61,
      "population": 1681,
      "adminCenter": "Xã Tân Lập",
      "longitude": 107.795,
      "latitude": 10.8662,
      "beforeMerger": "Xã Sông Phan, Xã Tân Lập",
      "wardCode": 3104
    },
    {
      "id": 2480,
      "code": "2480",
      "name": "Tân Minh",
      "type": "xã",
      "area": 223.76,
      "population": 22292,
      "adminCenter": "Thị trấn Tân Minh",
      "longitude": 107.63,
      "latitude": 10.8464,
      "beforeMerger": "Thị trấn Tân Minh, Xã Tân Đức, Xã Tân Phúc",
      "wardCode": 3114
    },
    {
      "id": 2481,
      "code": "2481",
      "name": "Tân Thành",
      "type": "xã",
      "area": 64.8,
      "population": 30611,
      "adminCenter": "Xã Tân Thành",
      "longitude": 107.973,
      "latitude": 10.7594,
      "beforeMerger": "Xã Tân Thành (huyện Hàm Thuận Nam), Xã Thuận Quý, Xã Tân Thuận",
      "wardCode": 3105
    },
    {
      "id": 2482,
      "code": "2482",
      "name": "Tánh Linh",
      "type": "xã",
      "area": 271.39,
      "population": 46741,
      "adminCenter": "Thị trấn Lạc Tánh",
      "longitude": 107.763,
      "latitude": 11.0129,
      "beforeMerger": "Thị trấn Lạc Tánh, Xã Gia An, Xã Đức Thuận",
      "wardCode": 3378
    },
    {
      "id": 2483,
      "code": "2483",
      "name": "Thuận An",
      "type": "xã",
      "area": 315.81,
      "population": 22625,
      "adminCenter": "Xã Thuận An",
      "longitude": 107.611,
      "latitude": 12.5363,
      "beforeMerger": "Xã Đắk Lao, Xã Thuận An",
      "wardCode": 2819
    },
    {
      "id": 2484,
      "code": "2484",
      "name": "Thuận Hạnh",
      "type": "xã",
      "area": 129.78,
      "population": 19236,
      "adminCenter": "Xã Thuận Hà",
      "longitude": 107.519,
      "latitude": 12.2903,
      "beforeMerger": "Xã Thuận Hà, Xã Thuận Hạnh",
      "wardCode": 2851
    },
    {
      "id": 2485,
      "code": "2485",
      "name": "Tiến Thành",
      "type": "phường",
      "area": 55.06,
      "population": 28395,
      "adminCenter": "Phường Đức Long",
      "longitude": 108.031,
      "latitude": 10.8513,
      "beforeMerger": "Phường Đức Long, Xã Tiến Thành",
      "wardCode": 3086
    },
    {
      "id": 2486,
      "code": "2486",
      "name": "Trà Tân",
      "type": "xã",
      "area": 135.94,
      "population": 29638,
      "adminCenter": "Xã Trà Tân",
      "longitude": 107.496,
      "latitude": 11.0563,
      "beforeMerger": "Xã Tân Hà (huyện Đức Linh), Xã Đông Hà, Xã Trà Tân",
      "wardCode": 3113
    },
    {
      "id": 2487,
      "code": "2487",
      "name": "Trường Xuân",
      "type": "xã",
      "area": 67.94,
      "population": 36405,
      "adminCenter": "Xã Trường Xuân",
      "longitude": 107.652,
      "latitude": 12.1499,
      "beforeMerger": "Xã Nâm N’Jang, Xã Trường Xuân",
      "wardCode": 2782
    },
    {
      "id": 2488,
      "code": "2488",
      "name": "Tuy Đức",
      "type": "xã",
      "area": 265.99,
      "population": 31786,
      "adminCenter": "Xã Đắk Búk So",
      "longitude": 107.472,
      "latitude": 12.1576,
      "beforeMerger": "Xã Quảng Tâm, Xã Đắk R’Tíh, Xã Đắk Búk So",
      "wardCode": 2855
    },
    {
      "id": 2489,
      "code": "2489",
      "name": "Tuy Phong",
      "type": "xã",
      "area": 444.1,
      "population": 951,
      "adminCenter": "UBND xã Phong Phú",
      "longitude": 108.648,
      "latitude": 11.41,
      "beforeMerger": "Xã Phan Dũng, Xã Phong Phú",
      "wardCode": 3089
    },
    {
      "id": 2490,
      "code": "2490",
      "name": "Tuyên Quang",
      "type": "xã",
      "area": 38.17,
      "population": 28817,
      "adminCenter": "Xã Tiến Lợi",
      "longitude": 108.039,
      "latitude": 10.9267,
      "beforeMerger": "Xã Tiến Lợi, Xã Hàm Mỹ",
      "wardCode": 3080
    },
    {
      "id": 2491,
      "code": "2491",
      "name": "Vĩnh Hảo",
      "type": "xã",
      "area": 138.58,
      "population": 15509,
      "adminCenter": "UBND xã Vĩnh Hảo",
      "longitude": 108.791,
      "latitude": 11.3501,
      "beforeMerger": "Xã Vĩnh Tân, Xã Vĩnh Hảo",
      "wardCode": 3090
    },
    {
      "id": 2492,
      "code": "2492",
      "name": "Xuân Hương - Đà Lạt",
      "type": "phường",
      "area": 73.45,
      "population": 103178,
      "adminCenter": "Thành ủy Đà Lạt, số 31 Đinh Tiên Hoàng",
      "longitude": 108.443,
      "latitude": 11.9033,
      "beforeMerger": "Phường 1 (thành phố Đà Lạt), Phường 2 (thành phố Đà Lạt), Phường 3, Phường 4, Phường 10",
      "wardCode": 181
    },
    {
      "id": 2493,
      "code": "2493",
      "name": "Xuân Trường - Đà Lạt",
      "type": "phường",
      "area": 168.83,
      "population": 36163,
      "adminCenter": "UBND xã Xuân Thọ thôn Đa Lộc",
      "longitude": 108.531,
      "latitude": 11.8993,
      "beforeMerger": "Phường 11, Xã Xuân Thọ, Xã Xuân Trường, Xã Trạm Hành",
      "wardCode": 183
    }
  ]
}