{
  "provinceId": 33,
  "provinceName": "thành phố Cần Thơ",
  "mahc": 33,
  "wards": [
    {
      "id": 3188,
      "code": "3188",
      "name": "An Bình",
      "type": "phường",
      "area": 18.39,
      "population": 5015,
      "adminCenter": "UBND phường An Bình",
      "longitude": 105.7,
      "latitude": 10.0009,
      "beforeMerger": "Phường An Bình, Xã Mỹ Khánh, Phường Long Tuyền",
      "wardCode": 281
    },
    {
      "id": 3189,
      "code": "3189",
      "name": "An Lạc Thôn",
      "type": "xã",
      "area": 84.99,
      "population": 56248,
      "adminCenter": "UBND thị trấn An Lạc Thôn",
      "longitude": 105.912,
      "latitude": 9.87378,
      "beforeMerger": "Thị trấn An Lạc Thôn, Xã Xuân Hòa, Xã Trinh Phú",
      "wardCode": 155
    },
    {
      "id": 3190,
      "code": "3190",
      "name": "An Ninh",
      "type": "xã",
      "area": 68.81,
      "population": 40,
      "adminCenter": "UBND xã An Hiệp",
      "longitude": 105.911,
      "latitude": 9.63103,
      "beforeMerger": "Xã An Hiệp, Xã An Ninh",
      "wardCode": 323
    },
    {
      "id": 3191,
      "code": "3191",
      "name": "An Thạnh",
      "type": "xã",
      "area": 94.92,
      "population": 37711,
      "adminCenter": "UBND huyện Cù Lao Dung",
      "longitude": 106.148,
      "latitude": 9.68459,
      "beforeMerger": "Thị trấn Cù Lao Dung, Xã An Thạnh 1, Xã An Thạnh Tây, Xã An Thạnh Đông",
      "wardCode": 325
    },
    {
      "id": 3192,
      "code": "3192",
      "name": "Bình Thủy",
      "type": "phường",
      "area": 15.17,
      "population": 62483,
      "adminCenter": "đang cập nhật",
      "longitude": 105.752,
      "latitude": 10.0712,
      "beforeMerger": "Phường An Thới, Phường Bình Thủy, Phường Bùi Hữu Nghĩa (phần còn lại sau khi sáp nhập vào phường Cái Khế)",
      "wardCode": 282
    },
    {
      "id": 3193,
      "code": "3193",
      "name": "Cái Khế",
      "type": "phường",
      "area": 10.04,
      "population": 57688,
      "adminCenter": "UBND phường An Hòa",
      "longitude": 105.781,
      "latitude": 10.0517,
      "beforeMerger": "Phường An Hòa, Phường Cái Khế, Phường Bùi Hữu Nghĩa",
      "wardCode": 271
    },
    {
      "id": 3194,
      "code": "3194",
      "name": "Cái Răng",
      "type": "phường",
      "area": 26.88,
      "population": 71106,
      "adminCenter": "Quận ủy - UBND quận Cái Răng (cũ)",
      "longitude": 105.761,
      "latitude": 9.98744,
      "beforeMerger": "Phường Lê Bình, Phường Thường Thạnh, Phường Ba Láng, Phường Hưng Thạnh",
      "wardCode": 285
    },
    {
      "id": 3195,
      "code": "3195",
      "name": "Châu Thành",
      "type": "xã",
      "area": 47.71,
      "population": 39104,
      "adminCenter": "UBND huyện Châu Thành",
      "longitude": 105.841,
      "latitude": 9.96217,
      "beforeMerger": "Thị trấn Mái Dầm, Thị trấn Ngã Sáu, Xã Đông Phú",
      "wardCode": 302
    },
    {
      "id": 3196,
      "code": "3196",
      "name": "Cờ Đỏ",
      "type": "xã",
      "area": 44.6265,
      "population": 0,
      "adminCenter": "Huyện ủy Cờ Đỏ",
      "longitude": 105.416,
      "latitude": 10.0678,
      "beforeMerger": "Thị trấn Cờ Đỏ, Xã Thới Đông, Xã Thới Xuân",
      "wardCode": 102
    },
    {
      "id": 3197,
      "code": "3197",
      "name": "Cù Lao Dung",
      "type": "xã",
      "area": 150.13,
      "population": 44937,
      "adminCenter": "UBND xã An Thạnh 3",
      "longitude": 106.225,
      "latitude": 9.57508,
      "beforeMerger": "Xã An Thạnh 2, Xã Đại Ân 1, Xã An Thạnh 3, Xã An Thạnh Nam",
      "wardCode": 326
    },
    {
      "id": 3198,
      "code": "3198",
      "name": "Đại Hải",
      "type": "xã",
      "area": 70.52,
      "population": 43579,
      "adminCenter": "UBND xã Đại Hải",
      "longitude": 105.881,
      "latitude": 9.79863,
      "beforeMerger": "Xã Ba Trinh, Xã Đại Hải",
      "wardCode": 316
    },
    {
      "id": 3199,
      "code": "3199",
      "name": "Đại Ngãi",
      "type": "xã",
      "area": 37.67,
      "population": 24532,
      "adminCenter": "UBND thị trấn Đại Ngãi",
      "longitude": 106.08,
      "latitude": 9.70044,
      "beforeMerger": "Thị trấn Đại Ngãi, Xã Long Đức",
      "wardCode": 327
    },
    {
      "id": 3200,
      "code": "3200",
      "name": "Đại Thành",
      "type": "phường",
      "area": 53,
      "population": 34594,
      "adminCenter": "UBND TP Ngã Bảy",
      "longitude": 105.82,
      "latitude": 9.84481,
      "beforeMerger": "Phường Hiệp Lợi, Xã Tân Thành, Xã Đại Thành",
      "wardCode": 137
    },
    {
      "id": 3201,
      "code": "3201",
      "name": "Đông Hiệp",
      "type": "xã",
      "area": 46.25,
      "population": 22762,
      "adminCenter": "UBND xã Đông Hiệp",
      "longitude": 105.503,
      "latitude": 10.0745,
      "beforeMerger": "Xã Đông Thắng, Xã Xuân Thắng, Xã Đông Hiệp",
      "wardCode": 104
    },
    {
      "id": 3202,
      "code": "3202",
      "name": "Đông Phước",
      "type": "xã",
      "area": 40,
      "population": 40105,
      "adminCenter": "UBND xã Đông Thạnh",
      "longitude": 105.763,
      "latitude": 9.93409,
      "beforeMerger": "Thị trấn Cái Tắc, Xã Đông Thạnh, Xã Đông Phước A",
      "wardCode": 125
    },
    {
      "id": 3203,
      "code": "3203",
      "name": "Đông Thuận",
      "type": "xã",
      "area": 60.89,
      "population": 24586,
      "adminCenter": "UBND xã Đông Thuận",
      "longitude": 105.469,
      "latitude": 10.0238,
      "beforeMerger": "Xã Đông Bình, Xã Đông Thuận",
      "wardCode": 105
    },
    {
      "id": 3204,
      "code": "3204",
      "name": "Gia Hòa",
      "type": "xã",
      "area": 77.06,
      "population": 40135,
      "adminCenter": "UBND xã Gia Hòa 2",
      "longitude": 105.8,
      "latitude": 9.43175,
      "beforeMerger": "Xã Thạnh Quới, Xã Gia Hòa 2",
      "wardCode": 157
    },
    {
      "id": 3205,
      "code": "3205",
      "name": "Hiệp Hưng",
      "type": "xã",
      "area": 69.25,
      "population": 33514,
      "adminCenter": "UBND huyện Phụng Hiệp",
      "longitude": 105.741,
      "latitude": 9.76771,
      "beforeMerger": "Thị trấn Cây Dương, Xã Hiệp Hưng",
      "wardCode": 304
    },
    {
      "id": 3206,
      "code": "3206",
      "name": "Hồ Đắc Kiện",
      "type": "xã",
      "area": 72.61,
      "population": 31322,
      "adminCenter": "UBND xã Hồ Đắc Kiện",
      "longitude": 105.857,
      "latitude": 9.7071,
      "beforeMerger": "Xã Thiện Mỹ, Xã Hồ Đắc Kiện",
      "wardCode": 317
    },
    {
      "id": 3207,
      "code": "3207",
      "name": "Hòa An",
      "type": "xã",
      "area": 61.62,
      "population": 32937,
      "adminCenter": "UBND thị trấn Kinh Cùng",
      "longitude": 105.635,
      "latitude": 9.78092,
      "beforeMerger": "Thị trấn Kinh Cùng, Xã Hòa An",
      "wardCode": 139
    },
    {
      "id": 3208,
      "code": "3208",
      "name": "Hỏa Lựu",
      "type": "xã",
      "area": 59.7457,
      "population": 0,
      "adminCenter": "UBND xã Hoả Lựu",
      "longitude": 105.401,
      "latitude": 9.71728,
      "beforeMerger": "Xã Tân Tiến, Xã Hỏa Tiến, Xã Hỏa Lựu",
      "wardCode": 119
    },
    {
      "id": 3209,
      "code": "3209",
      "name": "Hòa Tú",
      "type": "xã",
      "area": 67.15,
      "population": 24499,
      "adminCenter": "UBND huyện Mỹ Xuyên",
      "longitude": 105.888,
      "latitude": 9.4164,
      "beforeMerger": "Xã Hòa Tú 1, Xã Hòa Tú 2",
      "wardCode": 338
    },
    {
      "id": 3210,
      "code": "3210",
      "name": "Hưng Phú",
      "type": "phường",
      "area": 40.93,
      "population": 58543,
      "adminCenter": "UBND quận Cái Răng (mới)",
      "longitude": 105.803,
      "latitude": 9.99405,
      "beforeMerger": "Phường Tân Phú, Phường Phú Thứ, Phường Hưng Phú",
      "wardCode": 286
    },
    {
      "id": 3211,
      "code": "3211",
      "name": "Kế Sách",
      "type": "xã",
      "area": 61.58,
      "population": 43332,
      "adminCenter": "UBND huyện Kế Sách",
      "longitude": 105.944,
      "latitude": 9.77057,
      "beforeMerger": "Thị trấn Kế Sách, Xã Kế An, Xã Kế Thành",
      "wardCode": 154
    },
    {
      "id": 3212,
      "code": "3212",
      "name": "Khánh Hòa",
      "type": "phường",
      "area": 130.48,
      "population": 37634,
      "adminCenter": "UBND phường Khánh Hòa",
      "longitude": 106.026,
      "latitude": 9.40992,
      "beforeMerger": "Phường Khánh Hòa, Xã Vĩnh Hiệp, Xã Hòa Đông",
      "wardCode": 167
    },
    {
      "id": 3213,
      "code": "3213",
      "name": "Lai Hòa",
      "type": "xã",
      "area": 55.37,
      "population": 29426,
      "adminCenter": "UBND xã Lai Hòa",
      "longitude": 105.844,
      "latitude": 9.29803,
      "beforeMerger": "Không sáp nhập",
      "wardCode": 170
    },
    {
      "id": 3214,
      "code": "3214",
      "name": "Lâm Tân",
      "type": "xã",
      "area": 90.83,
      "population": 32006,
      "adminCenter": "UBND xã Lâm Tân",
      "longitude": 105.773,
      "latitude": 9.50692,
      "beforeMerger": "Xã Tuân Tức, Xã Lâm Kiết, Xã Lâm Tân",
      "wardCode": 162
    },
    {
      "id": 3215,
      "code": "3215",
      "name": "Lịch Hội Thượng",
      "type": "xã",
      "area": 48.99,
      "population": 27913,
      "adminCenter": "UBND thị trấn Lịch Hội Thượng",
      "longitude": 106.148,
      "latitude": 9.4652,
      "beforeMerger": "Thị trấn Lịch Hội Thượng, Xã Lịch Hội Thượng",
      "wardCode": 333
    },
    {
      "id": 3216,
      "code": "3216",
      "name": "Liêu Tú",
      "type": "xã",
      "area": 83.15,
      "population": 3137,
      "adminCenter": "UBND xã Liêu Tú",
      "longitude": 106.1,
      "latitude": 9.48141,
      "beforeMerger": "Xã Viên Bình, Xã Liêu Tú",
      "wardCode": 332
    },
    {
      "id": 3217,
      "code": "3217",
      "name": "Long Bình",
      "type": "phường",
      "area": 40.2,
      "population": 26378,
      "adminCenter": "UBND thị xã Long Mỹ",
      "longitude": 105.587,
      "latitude": 9.72868,
      "beforeMerger": "Phường Bình Thạnh, Phường Vĩnh Tường, Xã Long Bình",
      "wardCode": 310
    },
    {
      "id": 3218,
      "code": "3218",
      "name": "Long Hưng",
      "type": "xã",
      "area": 79.71,
      "population": 33579,
      "adminCenter": "UBND xã Long Hưng",
      "longitude": 105.798,
      "latitude": 9.68836,
      "beforeMerger": "Xã Hưng Phú, Xã Long Hưng",
      "wardCode": 319
    },
    {
      "id": 3219,
      "code": "3219",
      "name": "Long Mỹ",
      "type": "phường",
      "area": 51.4,
      "population": 35865,
      "adminCenter": "Thị uỷ Long Mỹ",
      "longitude": 105.609,
      "latitude": 9.6862,
      "beforeMerger": "Phường Thuận An (thị xã Long Mỹ), Xã Long Trị, Xã Long Trị A",
      "wardCode": 309
    },
    {
      "id": 3220,
      "code": "3220",
      "name": "Long Phú",
      "type": "xã",
      "area": 76.77,
      "population": 39763,
      "adminCenter": "UBND huyện Long Phú",
      "longitude": 106.123,
      "latitude": 9.59559,
      "beforeMerger": "Thị trấn Long Phú, Xã Long Phú",
      "wardCode": 330
    },
    {
      "id": 3221,
      "code": "3221",
      "name": "Long Phú 1",
      "type": "phường",
      "area": 57.67,
      "population": 30365,
      "adminCenter": "UBND xã Long Phú",
      "longitude": 105.639,
      "latitude": 9.6522,
      "beforeMerger": "Phường Trà Lồng, Xã Tân Phú, Xã Long Phú",
      "wardCode": 311
    },
    {
      "id": 3222,
      "code": "3222",
      "name": "Long Tuyền",
      "type": "phường",
      "area": 28.48,
      "population": 45292,
      "adminCenter": "UBND phường Long Tuyền",
      "longitude": 105.725,
      "latitude": 10.0432,
      "beforeMerger": "Phường Long Hòa, Phường Long Tuyền (phần còn lại sau khi sáp nhập vào phường An Bình)",
      "wardCode": 284
    },
    {
      "id": 3223,
      "code": "3223",
      "name": "Lương Tâm",
      "type": "xã",
      "area": 60.53,
      "population": 2402,
      "adminCenter": "UBND xã Lương Tâm",
      "longitude": 105.428,
      "latitude": 9.62804,
      "beforeMerger": "Xã Lương Nghĩa, Xã Lương Tâm",
      "wardCode": 149
    },
    {
      "id": 3224,
      "code": "3224",
      "name": "Mỹ Hương",
      "type": "xã",
      "area": 104.74,
      "population": 51412,
      "adminCenter": "UBND xã Mỹ Hương",
      "longitude": 105.861,
      "latitude": 9.5898,
      "beforeMerger": "Xã Thuận Hưng, Xã Phú Mỹ, Xã Mỹ Hương",
      "wardCode": 321
    },
    {
      "id": 3225,
      "code": "3225",
      "name": "Mỹ Phước",
      "type": "xã",
      "area": 97.36,
      "population": 23539,
      "adminCenter": "UBND xã Mỹ Phước",
      "longitude": 105.721,
      "latitude": 9.58793,
      "beforeMerger": "Không sáp nhập",
      "wardCode": 324
    },
    {
      "id": 3226,
      "code": "3226",
      "name": "Mỹ Quới",
      "type": "phường",
      "area": 83.91,
      "population": 3024,
      "adminCenter": "UBND xã Mỹ Quới",
      "longitude": 105.58,
      "latitude": 9.4866,
      "beforeMerger": "Phường 3 (thị xã Ngã Năm), Xã Mỹ Bình, Xã Mỹ Quới",
      "wardCode": 160
    },
    {
      "id": 3227,
      "code": "3227",
      "name": "Mỹ Tú",
      "type": "xã",
      "area": 86.63,
      "population": 38049,
      "adminCenter": "UBND huyện Mỹ Tú",
      "longitude": 105.792,
      "latitude": 9.59959,
      "beforeMerger": "Thị trấn Huỳnh Hữu Nghĩa, Xã Mỹ Thuận, Xã Mỹ Tú",
      "wardCode": 322
    },
    {
      "id": 3228,
      "code": "3228",
      "name": "Mỹ Xuyên",
      "type": "phường",
      "area": 48.34,
      "population": 51769,
      "adminCenter": "UBND thị trấn Mỹ Xuyên",
      "longitude": 105.918,
      "latitude": 9.54742,
      "beforeMerger": "Phường 10, Thị trấn Mỹ Xuyên, Xã Đại Tâm",
      "wardCode": 334
    },
    {
      "id": 3229,
      "code": "3229",
      "name": "Ngã Bảy",
      "type": "phường",
      "area": 25.17,
      "population": 37861,
      "adminCenter": "UBND xã Ngã Bảy",
      "longitude": 105.82,
      "latitude": 9.80178,
      "beforeMerger": "Phường Lái Hiếu, Phường Hiệp Thành, Phường Ngã Bảy",
      "wardCode": 298
    },
    {
      "id": 3230,
      "code": "3230",
      "name": "Ngã Năm",
      "type": "phường",
      "area": 95.3,
      "population": 58588,
      "adminCenter": "UBND thị xã Ngã Năm",
      "longitude": 105.612,
      "latitude": 9.58612,
      "beforeMerger": "Phường 1 (thị xã Ngã Năm), Phường 2 (thị xã Ngã Năm), Xã Vĩnh Quới",
      "wardCode": 158
    },
    {
      "id": 3231,
      "code": "3231",
      "name": "Ngọc Tố",
      "type": "xã",
      "area": 112.53,
      "population": 47,
      "adminCenter": "UBND xã Ngọc Tố",
      "longitude": 105.939,
      "latitude": 9.47663,
      "beforeMerger": "Xã Tham Đôn, Xã Ngọc Đông, Xã Ngọc Tố",
      "wardCode": 339
    },
    {
      "id": 3232,
      "code": "3232",
      "name": "Nhơn Ái",
      "type": "xã",
      "area": 38.16,
      "population": 40707,
      "adminCenter": "UBND xã Nhơn Ái",
      "longitude": 105.682,
      "latitude": 9.97745,
      "beforeMerger": "Xã Nhơn Nghĩa, Xã Nhơn Ái",
      "wardCode": 107
    },
    {
      "id": 3233,
      "code": "3233",
      "name": "Nhơn Mỹ",
      "type": "xã",
      "area": 79.73,
      "population": 42213,
      "adminCenter": "UBND xã Nhơn Mỹ",
      "longitude": 106.025,
      "latitude": 9.7621,
      "beforeMerger": "Xã An Mỹ, Xã Song Phụng, Xã Nhơn Mỹ",
      "wardCode": 315
    },
    {
      "id": 3234,
      "code": "3234",
      "name": "Nhu Gia",
      "type": "xã",
      "area": 75.59,
      "population": 3839,
      "adminCenter": "UBND xã Thạnh Phú",
      "longitude": 105.855,
      "latitude": 9.47039,
      "beforeMerger": "Xã Thạnh Phú, Xã Gia Hòa 1",
      "wardCode": 337
    },
    {
      "id": 3235,
      "code": "3235",
      "name": "Ninh Kiều",
      "type": "phường",
      "area": 5.42,
      "population": 119547,
      "adminCenter": "UBND quận Ninh Kiều",
      "longitude": 105.777,
      "latitude": 10.0331,
      "beforeMerger": "Phường Tân An, Phường Thới Bình, Phường Xuân Khánh",
      "wardCode": 272
    },
    {
      "id": 3236,
      "code": "3236",
      "name": "Ô Môn",
      "type": "phường",
      "area": 54.69,
      "population": 73412,
      "adminCenter": "UBND quận Ô Môn",
      "longitude": 105.625,
      "latitude": 10.1245,
      "beforeMerger": "Phường Châu Văn Liêm, Phường Thới Hòa, Phường Thới An, Xã Thới Thạnh",
      "wardCode": 81
    },
    {
      "id": 3237,
      "code": "3237",
      "name": "Phong Điền",
      "type": "phường",
      "area": 45.58,
      "population": 51949,
      "adminCenter": "Huyện ủy Phong Điền",
      "longitude": 105.669,
      "latitude": 10.0279,
      "beforeMerger": "Thị trấn Phong Điền, Xã Tân Thới, Xã Giai Xuân",
      "wardCode": 106
    },
    {
      "id": 3238,
      "code": "3238",
      "name": "Phong Nẫm",
      "type": "xã",
      "area": 17.3,
      "population": 6416,
      "adminCenter": "UBND xã Phong Nẫm",
      "longitude": 105.953,
      "latitude": 9.8964,
      "beforeMerger": "Không sáp nhập",
      "wardCode": 313
    },
    {
      "id": 3239,
      "code": "3239",
      "name": "Phú Hữu",
      "type": "xã",
      "area": 60.54,
      "population": 41254,
      "adminCenter": "UBND xã Phú Hữu.",
      "longitude": 105.852,
      "latitude": 9.90089,
      "beforeMerger": "Xã Phú Tân, Xã Đông Phước, Xã Phú Hữu",
      "wardCode": 303
    },
    {
      "id": 3240,
      "code": "3240",
      "name": "Phú Lộc",
      "type": "xã",
      "area": 80.15,
      "population": 50929,
      "adminCenter": "Huyện ủy Thạnh Trị",
      "longitude": 105.711,
      "latitude": 9.43517,
      "beforeMerger": "Thị trấn Hưng Lợi, Thị trấn Phú Lộc, Xã Thạnh Trị",
      "wardCode": 161
    },
    {
      "id": 3241,
      "code": "3241",
      "name": "Phú Lợi",
      "type": "phường",
      "area": 26.79,
      "population": 95516,
      "adminCenter": "UBND TP Sóc Trăng",
      "longitude": 105.985,
      "latitude": 9.59174,
      "beforeMerger": "Phường 1 (thành phố Sóc Trăng), Phường 2 (thành phố Sóc Trăng), Phường 3 (thành phố Sóc Trăng), Phường 4",
      "wardCode": 153
    },
    {
      "id": 3242,
      "code": "3242",
      "name": "Phú Tâm",
      "type": "xã",
      "area": 48.88,
      "population": 33318,
      "adminCenter": "UBND huyện Châu Thành",
      "longitude": 105.944,
      "latitude": 9.71385,
      "beforeMerger": "Thị trấn Châu Thành, Xã Phú Tâm",
      "wardCode": 318
    },
    {
      "id": 3243,
      "code": "3243",
      "name": "Phụng Hiệp",
      "type": "xã",
      "area": 66.78,
      "population": 33408,
      "adminCenter": "UBND xã Hoà Mỹ",
      "longitude": 105.684,
      "latitude": 9.80551,
      "beforeMerger": "Xã Hòa Mỹ, Xã Phụng Hiệp",
      "wardCode": 138
    },
    {
      "id": 3244,
      "code": "3244",
      "name": "Phước Thới",
      "type": "phường",
      "area": 53.11,
      "population": 46788,
      "adminCenter": "UBND phường Phước Thới",
      "longitude": 105.686,
      "latitude": 10.1078,
      "beforeMerger": "Phường Trường Lạc, Phường Phước Thới",
      "wardCode": 83
    },
    {
      "id": 3245,
      "code": "3245",
      "name": "Phương Bình",
      "type": "xã",
      "area": 85.87,
      "population": 33937,
      "adminCenter": "UBND xã Phương Bình",
      "longitude": 105.688,
      "latitude": 9.71564,
      "beforeMerger": "Xã Phương Phú, Xã Phương Bình",
      "wardCode": 142
    },
    {
      "id": 3246,
      "code": "3246",
      "name": "Sóc Trăng",
      "type": "phường",
      "area": 41.67,
      "population": 61253,
      "adminCenter": "UBND phường 6",
      "longitude": 105.991,
      "latitude": 9.62716,
      "beforeMerger": "Phường 5, Phường 6, Phường 7, Phường 8",
      "wardCode": 152
    },
    {
      "id": 3247,
      "code": "3247",
      "name": "Tài Văn",
      "type": "xã",
      "area": 68.07,
      "population": 3449,
      "adminCenter": "UBND xã Tài Văn",
      "longitude": 106.049,
      "latitude": 9.54262,
      "beforeMerger": "Xã Viên An, Xã Tài Văn",
      "wardCode": 335
    },
    {
      "id": 3248,
      "code": "3248",
      "name": "Tân An",
      "type": "phường",
      "area": 8.06,
      "population": 85997,
      "adminCenter": "UBND phường Hưng Lợi",
      "longitude": 105.76,
      "latitude": 10.0258,
      "beforeMerger": "Phường An Khánh, Phường Hưng Lợi",
      "wardCode": 280
    },
    {
      "id": 3249,
      "code": "3249",
      "name": "Tân Bình",
      "type": "xã",
      "area": 61.85,
      "population": 38032,
      "adminCenter": "UBND xã Tân Bình",
      "longitude": 105.646,
      "latitude": 9.86425,
      "beforeMerger": "Xã Bình Thành, Xã Tân Bình",
      "wardCode": 126
    },
    {
      "id": 3250,
      "code": "3250",
      "name": "Tân Hòa",
      "type": "xã",
      "area": 58.6,
      "population": 50989,
      "adminCenter": "UBND huyện Châu Thành A",
      "longitude": 105.617,
      "latitude": 9.9186,
      "beforeMerger": "Thị trấn Một Ngàn, Thị trấn Bảy Ngàn, Xã Nhơn Nghĩa A, Xã Tân Hòa",
      "wardCode": 299
    },
    {
      "id": 3251,
      "code": "3251",
      "name": "Tân Lộc",
      "type": "xã",
      "area": 33.4,
      "population": 35621,
      "adminCenter": "UBND phường Tân Lộc",
      "longitude": 105.571,
      "latitude": 10.2538,
      "beforeMerger": "Không sáp nhập",
      "wardCode": 289
    },
    {
      "id": 3252,
      "code": "3252",
      "name": "Tân Long",
      "type": "xã",
      "area": 102.12,
      "population": 35492,
      "adminCenter": "UBND xã Tân Long",
      "longitude": 105.669,
      "latitude": 9.52249,
      "beforeMerger": "Xã Thạnh Tân, Xã Long Bình, Xã Tân Long",
      "wardCode": 159
    },
    {
      "id": 3253,
      "code": "3253",
      "name": "Tân Phước Hưng",
      "type": "xã",
      "area": 57.77,
      "population": 25745,
      "adminCenter": "UBND xã Tân Phước Hưng",
      "longitude": 105.795,
      "latitude": 9.74639,
      "beforeMerger": "Thị trấn Búng Tàu, Xã Tân Phước Hưng",
      "wardCode": 305
    },
    {
      "id": 3254,
      "code": "3254",
      "name": "Tân Thạnh",
      "type": "xã",
      "area": 70.8,
      "population": 35806,
      "adminCenter": "UBND xã Tân Thạnh",
      "longitude": 106.064,
      "latitude": 9.62299,
      "beforeMerger": "Xã Tân Hưng, Xã Châu Khánh, Xã Tân Thạnh",
      "wardCode": 329
    },
    {
      "id": 3255,
      "code": "3255",
      "name": "Thạnh An",
      "type": "xã",
      "area": 85.97,
      "population": 30682,
      "adminCenter": "UBND thị trấn Thạnh An",
      "longitude": 105.29,
      "latitude": 10.1854,
      "beforeMerger": "Thị trấn Thạnh An, Xã Thạnh Lợi, Xã Thạnh Thắng",
      "wardCode": 292
    },
    {
      "id": 3256,
      "code": "3256",
      "name": "Thạnh Hòa",
      "type": "xã",
      "area": 81.36,
      "population": 63248,
      "adminCenter": "UBND xã Long Thạnh",
      "longitude": 105.728,
      "latitude": 9.87692,
      "beforeMerger": "Xã Long Thạnh, Xã Tân Long, Xã Thạnh Hòa",
      "wardCode": 136
    },
    {
      "id": 3257,
      "code": "3257",
      "name": "Thạnh Phú",
      "type": "xã",
      "area": 99.07,
      "population": 25699,
      "adminCenter": "UBND xã Thạnh Phú",
      "longitude": 105.405,
      "latitude": 10.1295,
      "beforeMerger": "Không sáp nhập",
      "wardCode": 296
    },
    {
      "id": 3258,
      "code": "3258",
      "name": "Thạnh Quới",
      "type": "xã",
      "area": 103.86,
      "population": 3911,
      "adminCenter": "UBND xã Thạnh Quới",
      "longitude": 105.348,
      "latitude": 10.2075,
      "beforeMerger": "Xã Thạnh Tiến, Xã Thạnh An, Xã Thạnh Quới",
      "wardCode": 295
    },
    {
      "id": 3259,
      "code": "3259",
      "name": "Thạnh Thới An",
      "type": "xã",
      "area": 87.15,
      "population": 29019,
      "adminCenter": "UBND xã Thạnh Thới An",
      "longitude": 106.007,
      "latitude": 9.48256,
      "beforeMerger": "Xã Thạnh Thới Thuận, Xã Thạnh Thới An",
      "wardCode": 336
    },
    {
      "id": 3260,
      "code": "3260",
      "name": "Thạnh Xuân",
      "type": "xã",
      "area": 43.95,
      "population": 41039,
      "adminCenter": "UBND xã Thạnh Xuân",
      "longitude": 105.696,
      "latitude": 9.9338,
      "beforeMerger": "Thị trấn Rạch Gòi, Xã Tân Phú Thạnh, Xã Thạnh Xuân",
      "wardCode": 301
    },
    {
      "id": 3261,
      "code": "3261",
      "name": "Thới An Đông",
      "type": "phường",
      "area": 25.04,
      "population": 39401,
      "adminCenter": "UBND phường Thới An Đông",
      "longitude": 105.701,
      "latitude": 10.0815,
      "beforeMerger": "Phường Trà An, Phường Trà Nóc, Phường Thới An Đông",
      "wardCode": 283
    },
    {
      "id": 3262,
      "code": "3262",
      "name": "Thới An Hội",
      "type": "xã",
      "area": 60.32,
      "population": 31726,
      "adminCenter": "UBND xã An Lạc Tây",
      "longitude": 105.979,
      "latitude": 9.82553,
      "beforeMerger": "Xã An Lạc Tây, Xã Thới An Hội",
      "wardCode": 314
    },
    {
      "id": 3263,
      "code": "3263",
      "name": "Thới Hưng",
      "type": "xã",
      "area": 69.92,
      "population": 19044,
      "adminCenter": "UBND xã Thới Hưng",
      "longitude": 105.519,
      "latitude": 10.124,
      "beforeMerger": "Không sáp nhập",
      "wardCode": 103
    },
    {
      "id": 3264,
      "code": "3264",
      "name": "Thới Lai",
      "type": "xã",
      "area": 50.78,
      "population": 36371,
      "adminCenter": "Huyện ủy Thới Lai",
      "longitude": 105.551,
      "latitude": 10.0411,
      "beforeMerger": "Thị trấn Thới Lai, Xã Thới Tân, Xã Trường Thắng",
      "wardCode": 100
    },
    {
      "id": 3265,
      "code": "3265",
      "name": "Thới Long",
      "type": "phường",
      "area": 54.1,
      "population": 52979,
      "adminCenter": "UBND phường Long Hưng",
      "longitude": 105.583,
      "latitude": 10.1701,
      "beforeMerger": "Phường Long Hưng, Phường Tân Hưng, Phường Thới Long",
      "wardCode": 82
    },
    {
      "id": 3266,
      "code": "3266",
      "name": "Thốt Nốt",
      "type": "phường",
      "area": 23.61,
      "population": 61387,
      "adminCenter": "Quận ủy Thốt Nốt",
      "longitude": 105.504,
      "latitude": 10.2917,
      "beforeMerger": "Phường Thuận An (quận Thốt Nốt), Phường Thới Thuận, Phường Thốt Nốt (phần còn lại sau khi sáp nhập vào phường Thuận Hưng)",
      "wardCode": 287
    },
    {
      "id": 3267,
      "code": "3267",
      "name": "Thuận Hòa",
      "type": "xã",
      "area": 45.86,
      "population": 29846,
      "adminCenter": "UBND xã Phú Tân",
      "longitude": 105.928,
      "latitude": 9.68571,
      "beforeMerger": "Xã Thuận Hòa (huyện Châu Thành), Xã Phú Tân",
      "wardCode": 320
    },
    {
      "id": 3268,
      "code": "3268",
      "name": "Thuận Hưng",
      "type": "phường",
      "area": 31.13,
      "population": 56878,
      "adminCenter": "UBND quận Thốt Nốt",
      "longitude": 105.562,
      "latitude": 10.2263,
      "beforeMerger": "Phường Trung Kiên, Phường Thuận Hưng, Phường Thốt Nốt",
      "wardCode": 291
    },
    {
      "id": 3269,
      "code": "3269",
      "name": "Trần Đề",
      "type": "xã",
      "area": 93.92,
      "population": 52771,
      "adminCenter": "UBND huyện Trần Đề",
      "longitude": 106.176,
      "latitude": 9.51405,
      "beforeMerger": "Thị trấn Trần Đề, Xã Đại Ân 2, Xã Trung Bình",
      "wardCode": 331
    },
    {
      "id": 3270,
      "code": "3270",
      "name": "Trung Hưng",
      "type": "xã",
      "area": 61.07,
      "population": 55012,
      "adminCenter": "UBND xã Trung Hưng",
      "longitude": 105.499,
      "latitude": 10.1766,
      "beforeMerger": "Xã Trung Thạnh, Xã Trung Hưng",
      "wardCode": 297
    },
    {
      "id": 3271,
      "code": "3271",
      "name": "Trung Nhứt",
      "type": "phường",
      "area": 30.84,
      "population": 37469,
      "adminCenter": "UBND phường Thạnh Hòa",
      "longitude": 105.51,
      "latitude": 10.2336,
      "beforeMerger": "Phường Thạnh Hòa, Phường Trung Nhứt, Xã Trung An",
      "wardCode": 290
    },
    {
      "id": 3272,
      "code": "3272",
      "name": "Trường Khánh",
      "type": "xã",
      "area": 58.33,
      "population": 34621,
      "adminCenter": "UBND xã Trường Khánh",
      "longitude": 106.029,
      "latitude": 9.68798,
      "beforeMerger": "Xã Hậu Thạnh, Xã Phú Hữu, Xã Trường Khánh",
      "wardCode": 328
    },
    {
      "id": 3273,
      "code": "3273",
      "name": "Trường Long",
      "type": "xã",
      "area": 31.01,
      "population": 24064,
      "adminCenter": "UBND xã Trường Long",
      "longitude": 105.618,
      "latitude": 9.98011,
      "beforeMerger": "Không sáp nhập",
      "wardCode": 108
    },
    {
      "id": 3274,
      "code": "3274",
      "name": "Trường Long Tây",
      "type": "xã",
      "area": 50.59,
      "population": 25313,
      "adminCenter": "UBND xã Trường Long Tây",
      "longitude": 105.572,
      "latitude": 9.94336,
      "beforeMerger": "Xã Trường Long A, Xã Trường Long Tây",
      "wardCode": 300
    },
    {
      "id": 3275,
      "code": "3275",
      "name": "Trường Thành",
      "type": "xã",
      "area": 59.09,
      "population": 37802,
      "adminCenter": "UBND xã Định Môn",
      "longitude": 105.61,
      "latitude": 10.0423,
      "beforeMerger": "Xã Tân Thạnh, Xã Định Môn, Xã Trường Thành",
      "wardCode": 110
    },
    {
      "id": 3276,
      "code": "3276",
      "name": "Trường Xuân",
      "type": "xã",
      "area": 67.94,
      "population": 36405,
      "adminCenter": "UBND xã Trường Xuân",
      "longitude": 105.525,
      "latitude": 9.97916,
      "beforeMerger": "Xã Trường Xuân A, Xã Trường Xuân B, Xã Trường Xuân",
      "wardCode": 109
    },
    {
      "id": 3277,
      "code": "3277",
      "name": "Vị Tân",
      "type": "phường",
      "area": 37.07,
      "population": 36079,
      "adminCenter": "UBND xã Vị Tân",
      "longitude": 105.454,
      "latitude": 9.79155,
      "beforeMerger": "Phường IV, Phường V, Xã Vị Tân",
      "wardCode": 118
    },
    {
      "id": 3278,
      "code": "3278",
      "name": "Vị Thanh",
      "type": "phường",
      "area": 22.11,
      "population": 32766,
      "adminCenter": "UBND TP Vị Thanh",
      "longitude": 105.47,
      "latitude": 9.76382,
      "beforeMerger": "Phường I, Phường III, Phường VII",
      "wardCode": 111
    },
    {
      "id": 3279,
      "code": "3279",
      "name": "Vị Thanh 1",
      "type": "xã",
      "area": 71.12,
      "population": 42766,
      "adminCenter": "UBND xã Vị Thanh",
      "longitude": 105.559,
      "latitude": 9.86743,
      "beforeMerger": "Xã Vị Đông, Xã Vị Bình, Xã Vị Thanh",
      "wardCode": 308
    },
    {
      "id": 3280,
      "code": "3280",
      "name": "Vị Thủy",
      "type": "xã",
      "area": 49.84,
      "population": 32394,
      "adminCenter": "UBND huyện Vị Thủy",
      "longitude": 105.536,
      "latitude": 9.76016,
      "beforeMerger": "Thị trấn Nàng Mau, Xã Vị Thắng, Xã Vị Trung",
      "wardCode": 306
    },
    {
      "id": 3281,
      "code": "3281",
      "name": "Vĩnh Châu",
      "type": "phường",
      "area": 98.26,
      "population": 68437,
      "adminCenter": "UBND thị xã Vĩnh Châu",
      "longitude": 106.034,
      "latitude": 9.34799,
      "beforeMerger": "Phường 1 (thị xã Vĩnh Châu), Phường 2 (thị xã Vĩnh Châu), Xã Lạc Hòa",
      "wardCode": 164
    },
    {
      "id": 3282,
      "code": "3282",
      "name": "Vĩnh Hải",
      "type": "xã",
      "area": 83.75,
      "population": 2782,
      "adminCenter": "UBND xã Vĩnh Hải",
      "longitude": 106.134,
      "latitude": 9.37338,
      "beforeMerger": "Không sáp nhập",
      "wardCode": 168
    },
    {
      "id": 3283,
      "code": "3283",
      "name": "Vĩnh Lợi",
      "type": "xã",
      "area": 31.98,
      "population": 17236,
      "adminCenter": "UBND xã Vĩnh Lợi",
      "longitude": 105.643,
      "latitude": 9.4381,
      "beforeMerger": "Xã Châu Hưng, Xã Vĩnh Thành, Xã Vĩnh Lợi",
      "wardCode": 163
    },
    {
      "id": 3284,
      "code": "3284",
      "name": "Vĩnh Phước",
      "type": "phường",
      "area": 103.15,
      "population": 51897,
      "adminCenter": "UBND phường Vĩnh Phước",
      "longitude": 105.912,
      "latitude": 9.32011,
      "beforeMerger": "Phường Vĩnh Phước, Xã Vĩnh Tân",
      "wardCode": 169
    },
    {
      "id": 3285,
      "code": "3285",
      "name": "Vĩnh Thạnh",
      "type": "xã",
      "area": 65.9,
      "population": 30522,
      "adminCenter": "UBND huyện Vĩnh Thạnh",
      "longitude": 105.43,
      "latitude": 10.2179,
      "beforeMerger": "Thị trấn Vĩnh Thạnh, Xã Thạnh Lộc, Xã Thạnh Mỹ",
      "wardCode": 293
    },
    {
      "id": 3286,
      "code": "3286",
      "name": "Vĩnh Thuận Đông",
      "type": "xã",
      "area": 72.2,
      "population": 39808,
      "adminCenter": "UBND xã Vĩnh Thuận Tây",
      "longitude": 105.503,
      "latitude": 9.71711,
      "beforeMerger": "Xã Vĩnh Thuận Tây, Xã Vị Thủy, Xã Vĩnh Thuận Đông",
      "wardCode": 312
    },
    {
      "id": 3287,
      "code": "3287",
      "name": "Vĩnh Trinh",
      "type": "xã",
      "area": 51.01,
      "population": 27026,
      "adminCenter": "UBND xã Vĩnh Trinh",
      "longitude": 105.464,
      "latitude": 10.2688,
      "beforeMerger": "Xã Vĩnh Bình, Xã Vĩnh Trinh",
      "wardCode": 294
    },
    {
      "id": 3288,
      "code": "3288",
      "name": "Vĩnh Tường",
      "type": "xã",
      "area": 67.01,
      "population": 31676,
      "adminCenter": "UBND xã Vĩnh Tường",
      "longitude": 105.577,
      "latitude": 9.81249,
      "beforeMerger": "Xã Vĩnh Trung, Xã Vĩnh Tường",
      "wardCode": 307
    },
    {
      "id": 3289,
      "code": "3289",
      "name": "Vĩnh Viễn",
      "type": "xã",
      "area": 68.86,
      "population": 24432,
      "adminCenter": "UBND huyện Long Mỹ",
      "longitude": 105.432,
      "latitude": 9.67488,
      "beforeMerger": "Thị trấn Vĩnh Viễn, Xã Vĩnh Viễn A",
      "wardCode": 151
    },
    {
      "id": 3290,
      "code": "3290",
      "name": "Xà Phiên",
      "type": "xã",
      "area": 100.48,
      "population": 46156,
      "adminCenter": "UBND xã Xà Phiên",
      "longitude": 105.527,
      "latitude": 9.6319,
      "beforeMerger": "Xã Thuận Hòa (huyện Long Mỹ), Xã Thuận Hưng, Xã Xà Phiên",
      "wardCode": 150
    }
  ]
}