{
  "provinceId": 4,
  "provinceName": "tỉnh Lào Cai",
  "mahc": 9,
  "wards": [
    {
      "id": 1035,
      "code": "1035",
      "name": "Ái Quốc",
      "type": "phường",
      "area": 17.6,
      "population": 24736,
      "adminCenter": "Trụ sở Đảng ủy, HĐND, UBND Ái Quốc hiện tại",
      "longitude": 106.382,
      "latitude": 20.9472,
      "beforeMerger": "Phường Ái Quốc, Xã Quyết Thắng, Xã Hồng Lạc",
      "wardCode": 869
    },
    {
      "id": 1036,
      "code": "1036",
      "name": "An Biên",
      "type": "phường",
      "area": 6.56,
      "population": 116091,
      "adminCenter": "Trụ sở của Đảng ủy – HĐND – UBND Vĩnh Niệm tại số 387 Thiên Lôi",
      "longitude": 106.676,
      "latitude": 20.8267,
      "beforeMerger": "Phường An Dương, Phường An Biên, Phường Trần Nguyên Hãn, Phường Vĩnh Niệm",
      "wardCode": 1205
    },
    {
      "id": 1037,
      "code": "1037",
      "name": "An Dương",
      "type": "phường",
      "area": 31.23,
      "population": 76879,
      "adminCenter": "Trung tâm hành chính – chính trị quận An Dương tại số 15 đường 351",
      "longitude": 106.596,
      "latitude": 20.8619,
      "beforeMerger": "Phường Nam Sơn (quận An Dương), Phường An Hải, Phường Lê Lợi, Phường Đồng Thái, Phường Tân Tiến, Phường An Hưng",
      "wardCode": 1180
    },
    {
      "id": 1038,
      "code": "1038",
      "name": "An Hải",
      "type": "phường",
      "area": 19.96,
      "population": 77086,
      "adminCenter": "Trụ sở cũ của UBND phường Đồng Thái, tổ dân phố Bạch Mai",
      "longitude": 106.634,
      "latitude": 20.8437,
      "beforeMerger": "Phường An Đồng, Phường Hồng Thái, Phường Lê Lợi, Phường An Hải, Phường Đồng Thái",
      "wardCode": 1247
    },
    {
      "id": 1039,
      "code": "1039",
      "name": "An Hưng",
      "type": "xã",
      "area": 20.23,
      "population": 25535,
      "adminCenter": "Trụ sở cũ của UBND An Thọ, thôn Trần Thành, An Thọ, huyện An Lão",
      "longitude": 106.593,
      "latitude": 20.7436,
      "beforeMerger": "Xã An Thái, Xã An Thọ, Xã Chiến Thắng",
      "wardCode": 1064
    },
    {
      "id": 1040,
      "code": "1040",
      "name": "An Khánh",
      "type": "xã",
      "area": 24.16,
      "population": 33936,
      "adminCenter": "Trụ sở cũ của UBND Mỹ Đức, thôn Tân Nam, Mỹ Đức",
      "longitude": 106.599,
      "latitude": 20.7756,
      "beforeMerger": "Xã Tân Viên, Xã Mỹ Đức, Xã Thái Sơn",
      "wardCode": 1086
    },
    {
      "id": 1041,
      "code": "1041",
      "name": "An Lão",
      "type": "xã",
      "area": 26.39,
      "population": 47189,
      "adminCenter": "Trụ sở UBND huyện An Lão, số 17 đường Nguyễn Văn Trỗi, thị trấn An Lão",
      "longitude": 106.576,
      "latitude": 20.8153,
      "beforeMerger": "Thị trấn An Lão, Xã An Thắng, Xã Tân Dân, Xã An Tiến, Thị trấn Trường Sơn, Xã Thái Sơn",
      "wardCode": 1106
    },
    {
      "id": 1042,
      "code": "1042",
      "name": "An Phong",
      "type": "phường",
      "area": 27.92,
      "population": 44660,
      "adminCenter": "Trụ sở cũ của UBND Hồng Phong, tổ dân phố Đình Ngọ",
      "longitude": 106.556,
      "latitude": 20.8955,
      "beforeMerger": "Phường An Hòa, Phường Hồng Phong, Phường Đại Bản, Phường Lê Thiện, Phường Tân Tiến, Phường Lê Lợi",
      "wardCode": 1108
    },
    {
      "id": 1043,
      "code": "1043",
      "name": "An Phú",
      "type": "xã",
      "area": 27.25,
      "population": 35121,
      "adminCenter": "Trụ sở Đảng ủy, HĐND, UBND An Phú hiện tại",
      "longitude": 106.374,
      "latitude": 21.007,
      "beforeMerger": "Xã An Bình, Xã An Phú, Xã Cộng Hòa",
      "wardCode": 974
    },
    {
      "id": 1044,
      "code": "1044",
      "name": "An Quang",
      "type": "xã",
      "area": 21.4,
      "population": 29091,
      "adminCenter": "Trụ sở cũ của UBND Quang Trung, thôn Câu Hạ A, Quang Trung",
      "longitude": 106.527,
      "latitude": 20.8117,
      "beforeMerger": "Xã Quốc Tuấn, Xã Quang Trung (huyện An Lão), Xã Quang Hưng",
      "wardCode": 1093
    },
    {
      "id": 1045,
      "code": "1045",
      "name": "An Thành",
      "type": "xã",
      "area": 23.66,
      "population": 28785,
      "adminCenter": "Trụ sở cũ của Đảng ủy, HĐND, UBND Kim Đính",
      "longitude": 106.502,
      "latitude": 20.9292,
      "beforeMerger": "Xã Ngũ Phúc (huyện Kim Thành), Xã Kim Tân, Xã Kim Đính",
      "wardCode": 956
    },
    {
      "id": 1046,
      "code": "1046",
      "name": "An Trường",
      "type": "xã",
      "area": 25.54,
      "population": 30256,
      "adminCenter": "Trụ sở cũ của UBND Trường Thọ, thôn Ngọc Chử 2, Trường Thọ",
      "longitude": 106.529,
      "latitude": 20.8404,
      "beforeMerger": "Xã Bát Trang, Xã Trường Thọ, Xã Trường Thành",
      "wardCode": 1107
    },
    {
      "id": 1047,
      "code": "1047",
      "name": "Bắc An Phụ",
      "type": "phường",
      "area": 26.1,
      "population": 22780,
      "adminCenter": "Trụ sở cũ của Đảng ủy, HĐND, UBND Bạch Đằng",
      "longitude": 106.461,
      "latitude": 21.0505,
      "beforeMerger": "Phường Thất Hùng, Xã Bạch Đằng (thị xã Kinh Môn), Xã Lê Ninh, Phường Văn Đức",
      "wardCode": 871
    },
    {
      "id": 1048,
      "code": "1048",
      "name": "Bắc Thanh Miện",
      "type": "xã",
      "area": 25.27,
      "population": 27227,
      "adminCenter": "Trụ sở cũ của Đảng ủy, HĐND, UBND Hồng Quang",
      "longitude": 106.205,
      "latitude": 20.7974,
      "beforeMerger": "Xã Hồng Quang, Xã Lam Sơn, Xã Lê Hồng",
      "wardCode": 1056
    },
    {
      "id": 1049,
      "code": "1049",
      "name": "Bạch Đằng",
      "type": "phường",
      "area": 53.49,
      "population": 51633,
      "adminCenter": "Trụ sở cũ của UBND Minh Đức",
      "longitude": 106.725,
      "latitude": 20.9698,
      "beforeMerger": "Phường Minh Đức, Xã Bạch Đằng (thành phố Thủy Nguyên), Phường Phạm Ngũ Lão",
      "wardCode": 1182
    },
    {
      "id": 1050,
      "code": "1050",
      "name": "Bạch Long Vĩ",
      "type": "đặc khu",
      "area": 3.07,
      "population": 686,
      "adminCenter": "Trụ sở huyện Bạch Long Vĩ hiện trạng",
      "longitude": 107.732,
      "latitude": 20.1333,
      "beforeMerger": "Huyện Bạch Long Vĩ",
      "wardCode": 3326
    },
    {
      "id": 1051,
      "code": "1051",
      "name": "Bình Giang",
      "type": "xã",
      "area": 26.01,
      "population": 32925,
      "adminCenter": "Trụ sở cũ của Đảng ủy, HĐND, UBND Tân Việt",
      "longitude": 106.222,
      "latitude": 20.884,
      "beforeMerger": "Xã Tân Việt (huyện Bình Giang), Xã Long Xuyên, Xã Hồng Khê, Xã Cổ Bì, Xã Vĩnh Hồng",
      "wardCode": 1023
    },
    {
      "id": 1052,
      "code": "1052",
      "name": "Cẩm Giang",
      "type": "xã",
      "area": 26.64,
      "population": 64523,
      "adminCenter": "Trụ sở của Đảng ủy, HĐND, UBND thị trấn Cẩm Giang",
      "longitude": 106.21,
      "latitude": 20.9687,
      "beforeMerger": "Thị trấn Cẩm Giang, Xã Định Sơn, Xã Cẩm Hoàng",
      "wardCode": 1021
    },
    {
      "id": 1053,
      "code": "1053",
      "name": "Cẩm Giàng",
      "type": "xã",
      "area": 23.43,
      "population": 34025,
      "adminCenter": "Trụ sở cũ của Đảng ủy, HĐND, UBND Ngọc Liên",
      "longitude": 106.156,
      "latitude": 20.9645,
      "beforeMerger": "Xã Lương Điền, Xã Ngọc Liên, Xã Cẩm Hưng, Xã Phúc Điền",
      "wardCode": 1026
    },
    {
      "id": 1054,
      "code": "1054",
      "name": "Cát Hải",
      "type": "đặc khu",
      "area": 286.98,
      "population": 71211,
      "adminCenter": "Trụ sở UBND huyện Cát Hải, đường Hà Sen, thị trấn Cát Bà và trụ sở UBND thị trấn Cát Hải",
      "longitude": 106.869,
      "latitude": 20.8087,
      "beforeMerger": "Thị trấn Cát Hải, Thị trấn Cát Bà, Xã Đồng Bài, Xã Hoàng Châu, Xã Nghĩa Lộ, Xã Văn Phong, Xã Gia Luận, Xã Hiền Hào, Xã Phù Long, Xã Trân Châu, Xã Việt Hải, Xã Xuân Đám",
      "wardCode": 1000
    },
    {
      "id": 1055,
      "code": "1055",
      "name": "Chấn Hưng",
      "type": "xã",
      "area": 32.11,
      "population": 26092,
      "adminCenter": "Trụ sở cũ của UBND Nam Hưng",
      "longitude": 106.635,
      "latitude": 20.6459,
      "beforeMerger": "Xã Nam Hưng (huyện Tiên Lãng), Xã Bắc Hưng, Xã Đông Hưng, Xã Tây Hưng",
      "wardCode": 1140
    },
    {
      "id": 1056,
      "code": "1056",
      "name": "Chí Linh",
      "type": "phường",
      "area": 26.79,
      "population": 31983,
      "adminCenter": "Trụ sở cũ của Đảng ủy, HĐND, UBND Phả Lại",
      "longitude": 106.319,
      "latitude": 21.1031,
      "beforeMerger": "Phường Phả Lại, Phường Cổ Thành, Xã Nhân Huệ",
      "wardCode": 872
    },
    {
      "id": 1057,
      "code": "1057",
      "name": "Chí Minh",
      "type": "xã",
      "area": 33.58,
      "population": 32636,
      "adminCenter": "Trụ sở cũ của Đảng ủy, HĐND, UBND Văn Tố",
      "longitude": 106.462,
      "latitude": 20.8078,
      "beforeMerger": "Xã An Thanh, Xã Văn Tố, Xã Chí Minh",
      "wardCode": 897
    },
    {
      "id": 1058,
      "code": "1058",
      "name": "Chu Văn An",
      "type": "phường",
      "area": 40.86,
      "population": 56251,
      "adminCenter": "Trụ sở cũ của Thành ủy, HĐND, UBND TP Chí Linh",
      "longitude": 106.374,
      "latitude": 21.0949,
      "beforeMerger": "Phường Sao Đỏ, Phường Văn An, Phường Chí Minh, Phường Thái Học, Phường Cộng Hòa, Phường Văn Đức",
      "wardCode": 873
    },
    {
      "id": 1059,
      "code": "1059",
      "name": "Đại Sơn",
      "type": "xã",
      "area": 22.99,
      "population": 30161,
      "adminCenter": "Trụ sở cũ của Đảng ủy, HĐND, UBND Hưng Đạo",
      "longitude": 106.378,
      "latitude": 20.8723,
      "beforeMerger": "Xã Bình Lãng, Xã Đại Sơn, Xã Thanh Hải, Xã Hưng Đạo (huyện Tứ Kỳ)",
      "wardCode": 963
    },
    {
      "id": 1060,
      "code": "1060",
      "name": "Đồ Sơn",
      "type": "phường",
      "area": 25.54,
      "population": 36494,
      "adminCenter": "Trụ sở cũ của UBND quận Đồ Sơn, số 195 Lý Thánh Tông",
      "longitude": 106.769,
      "latitude": 20.6894,
      "beforeMerger": "Phường Hải Sơn, Phường Tân Thành, Phường Vạn Hương, Phường Ngọc Xuyên",
      "wardCode": 999
    },
    {
      "id": 1061,
      "code": "1061",
      "name": "Đông Hải",
      "type": "phường",
      "area": 57.65,
      "population": 50748,
      "adminCenter": "– Số 40 đường Nam Phong (trụ sở cơ quan Đảng)\n– Số 433 đường Đông Hải (trụ sở HĐND, UBND, Trung tâm Phục vụ Hành chính công)",
      "longitude": 106.777,
      "latitude": 20.825,
      "beforeMerger": "Phường Đông Hải 1, Phường Đông Hải 2, Phường Nam Hải",
      "wardCode": 980
    },
    {
      "id": 1062,
      "code": "1062",
      "name": "Đường An",
      "type": "xã",
      "area": 25.53,
      "population": 34341,
      "adminCenter": "Trụ sở cũ của Đảng ủy, HĐND, UBND Tân Hồng",
      "longitude": 106.171,
      "latitude": 20.8725,
      "beforeMerger": "Xã Thúc Kháng, Xã Thái Minh, Xã Tân Hồng, Xã Thái Dương, Xã Thái Hòa",
      "wardCode": 1022
    },
    {
      "id": 1063,
      "code": "1063",
      "name": "Dương Kinh",
      "type": "phường",
      "area": 27.96,
      "population": 27339,
      "adminCenter": "Trụ sở cũ của UBND Hải Thành, số 869 đường Phạm Văn Đồng",
      "longitude": 106.719,
      "latitude": 20.7736,
      "beforeMerger": "Phường Hòa Nghĩa, Phường Tân Thành, Phường Anh Dũng, Phường Hải Thành",
      "wardCode": 994
    },
    {
      "id": 1064,
      "code": "1064",
      "name": "Gia Lộc",
      "type": "xã",
      "area": 21.78,
      "population": 46735,
      "adminCenter": "Trụ sở Huyện ủy, HĐND, UBND huyện Gia Lộc hiện tại",
      "longitude": 106.311,
      "latitude": 20.8713,
      "beforeMerger": "Xã Gia Tiến, Thị trấn Gia Lộc, Xã Gia Phúc, Xã Yết Kiêu, Xã Lê Lợi (huyện Gia Lộc)",
      "wardCode": 1011
    },
    {
      "id": 1065,
      "code": "1065",
      "name": "Gia Phúc",
      "type": "xã",
      "area": 31.79,
      "population": 40682,
      "adminCenter": "Trụ sở cũ của Đảng ủy, HĐND, UBND Hồng Hưng",
      "longitude": 106.291,
      "latitude": 20.8345,
      "beforeMerger": "Xã Toàn Thắng, Xã Hoàng Diệu, Xã Hồng Hưng, Xã Thống Kênh, Xã Đoàn Thượng, Xã Quang Đức, Thị trấn Gia Lộc, Xã Gia Phúc",
      "wardCode": 991
    },
    {
      "id": 1066,
      "code": "1066",
      "name": "Gia Viên",
      "type": "phường",
      "area": 5.01,
      "population": 102246,
      "adminCenter": "– 212 Lê Lợi (trụ sở cơ quan Đảng)\n– Trụ sở của UBND Đằng Giang cũ tại số 1/126 An Đà (trụ sở HĐND-UBND)\n– 201 Lạch Tray (Trung tâm phục vụ Hành chính công)",
      "longitude": 106.697,
      "latitude": 20.8477,
      "beforeMerger": "Phường Đằng Giang, Phường Cầu Đất, Phường Lạch Tray, Phường Gia Viên, Phường Đông Khê",
      "wardCode": 1204
    },
    {
      "id": 1067,
      "code": "1067",
      "name": "Hà Bắc",
      "type": "xã",
      "area": 26.29,
      "population": 36429,
      "adminCenter": "Trụ sở cũ của Đảng ủy, HĐND, UBND Cẩm Việt",
      "longitude": 106.414,
      "latitude": 20.942,
      "beforeMerger": "Xã Tân Việt (huyện Thanh Hà), Xã Cẩm Việt, Xã Hồng Lạc",
      "wardCode": 949
    },
    {
      "id": 1068,
      "code": "1068",
      "name": "Hà Đông",
      "type": "xã",
      "area": 33.15,
      "population": 33499,
      "adminCenter": "Trụ sở cũ của Đảng ủy, HĐND, UBND Thanh Quang",
      "longitude": 106.473,
      "latitude": 20.8361,
      "beforeMerger": "Xã Thanh Hồng, Xã Vĩnh Cường, Xã Thanh Quang",
      "wardCode": 977
    },
    {
      "id": 1069,
      "code": "1069",
      "name": "Hà Nam",
      "type": "xã",
      "area": 27.78,
      "population": 27800,
      "adminCenter": "Trụ sở cũ của Đảng ủy, HĐND, UBND Liên Mạc",
      "longitude": 106.463,
      "latitude": 20.921,
      "beforeMerger": "Xã Thanh Xuân, Xã Liên Mạc, Xã Thanh Lang, Xã Thanh An, Xã Hòa Bình",
      "wardCode": 955
    },
    {
      "id": 1070,
      "code": "1070",
      "name": "Hà Tây",
      "type": "xã",
      "area": 24.41,
      "population": 34187,
      "adminCenter": "Trụ sở cũ của Đảng ủy, HĐND, UBND Thanh Hải",
      "longitude": 106.406,
      "latitude": 20.882,
      "beforeMerger": "Xã Tân An, Xã An Phượng, Xã Thanh Hải",
      "wardCode": 964
    },
    {
      "id": 1071,
      "code": "1071",
      "name": "Hải An",
      "type": "phường",
      "area": 39.99,
      "population": 102648,
      "adminCenter": "Số 10/15A Lê Hồng Phong (trụ sở Sở Tài chính)",
      "longitude": 106.738,
      "latitude": 20.8094,
      "beforeMerger": "Phường Cát Bi, Phường Đằng Lâm, Phường Thành Tô, Phường Đằng Hải, Phường Tràng Cát, Phường Nam Hải, Phường Đông Hải 2",
      "wardCode": 1208
    },
    {
      "id": 1072,
      "code": "1072",
      "name": "Hải Dương",
      "type": "phường",
      "area": 6.51,
      "population": 51522,
      "adminCenter": "Trụ sở HĐND, UBND TP Hải Dương hiện tại",
      "longitude": 106.345,
      "latitude": 20.9445,
      "beforeMerger": "Phường Trần Hưng Đạo (thành phố Hải Dương), Phường Nhị Châu, Phường Ngọc Châu, Phường Quang Trung",
      "wardCode": 978
    },
    {
      "id": 1073,
      "code": "1073",
      "name": "Hải Hưng",
      "type": "xã",
      "area": 24.84,
      "population": 27314,
      "adminCenter": "Trụ sở cũ của Đảng ủy, HĐND, UBND Tân Trào",
      "longitude": 106.163,
      "latitude": 20.8038,
      "beforeMerger": "Xã Tân Trào (huyện Thanh Miện), Xã Ngô Quyền, Xã Đoàn Kết",
      "wardCode": 1057
    },
    {
      "id": 1074,
      "code": "1074",
      "name": "Hòa Bình",
      "type": "phường",
      "area": 19.47,
      "population": 47168,
      "adminCenter": "Trụ sở cũ của UBND An Lư",
      "longitude": 106.694,
      "latitude": 20.9383,
      "beforeMerger": "Phường Hòa Bình, Phường An Lư, Phường Thủy Hà",
      "wardCode": 1183
    },
    {
      "id": 1075,
      "code": "1075",
      "name": "Hồng An",
      "type": "phường",
      "area": 27.64,
      "population": 64771,
      "adminCenter": "Trụ sở UBND phường An Hồng (tổ dân phố Lê Lác 2)",
      "longitude": 106.593,
      "latitude": 20.9156,
      "beforeMerger": "Phường Quán Toan, Phường An Hồng, Phường An Hưng, Phường Đại Bản, Phường Lê Thiện, Phường Tân Tiến",
      "wardCode": 1234
    },
    {
      "id": 1076,
      "code": "1076",
      "name": "Hồng Bàng",
      "type": "phường",
      "area": 12.11,
      "population": 113200,
      "adminCenter": "-Số 1 Đinh Tiên Hoàng (trụ sở Sở Tài chính)\n-Bộ phận một cửa ở số 203 đường Bạch Đằng",
      "longitude": 106.656,
      "latitude": 20.8712,
      "beforeMerger": "Phường Hoàng Văn Thụ, Phường Minh Khai, Phường Phan Bội Châu, Phường Thượng Lý, Phường Sở Dầu, Phường Hùng Vương, Phường Gia Viên",
      "wardCode": 1189
    },
    {
      "id": 1077,
      "code": "1077",
      "name": "Hồng Châu",
      "type": "xã",
      "area": 29.59,
      "population": 32742,
      "adminCenter": "Trụ sở cũ của Đảng ủy, HĐND, UBND Văn Hội",
      "longitude": 106.284,
      "latitude": 20.7295,
      "beforeMerger": "Xã Tân Quang, Xã Văn Hội, Xã Hưng Long",
      "wardCode": 1049
    },
    {
      "id": 1078,
      "code": "1078",
      "name": "Hợp Tiến",
      "type": "xã",
      "area": 17.5,
      "population": 20740,
      "adminCenter": "Trụ sở của Đảng ủy, HĐND, UBND Hợp Tiến hiện tại",
      "longitude": 106.338,
      "latitude": 21.0626,
      "beforeMerger": "Xã Nam Hưng (huyện Nam Sách), Xã Nam Tân, Xã Hợp Tiến",
      "wardCode": 875
    },
    {
      "id": 1079,
      "code": "1079",
      "name": "Hưng Đạo",
      "type": "phường",
      "area": 18.64,
      "population": 37859,
      "adminCenter": "Trung tâm hành chính quận Dương Kinh, đường Mạc Đăng Doanh",
      "longitude": 106.683,
      "latitude": 20.8016,
      "beforeMerger": "Phường Đa Phúc, Phường Hưng Đạo, Phường Anh Dũng, Phường Hải Thành",
      "wardCode": 1185
    },
    {
      "id": 1080,
      "code": "1080",
      "name": "Hùng Thắng",
      "type": "xã",
      "area": 43.59,
      "population": 26877,
      "adminCenter": "Trụ sở của UBND Hùng Thắng, thôn Vấn Đông",
      "longitude": 106.676,
      "latitude": 20.6621,
      "beforeMerger": "Xã Hùng Thắng (huyện Tiên Lãng), Xã Vinh Quang",
      "wardCode": 998
    },
    {
      "id": 1081,
      "code": "1081",
      "name": "Kẻ Sặt",
      "type": "xã",
      "area": 24.67,
      "population": 39554,
      "adminCenter": "Trụ sở cũ của Huyện ủy, HĐND, UBND huyện Bình Giang",
      "longitude": 106.181,
      "latitude": 20.9062,
      "beforeMerger": "Xã Vĩnh Hưng, Xã Hùng Thắng (huyện Bình Giang), Thị trấn Kẻ Sặt, Xã Vĩnh Hồng",
      "wardCode": 1025
    },
    {
      "id": 1082,
      "code": "1082",
      "name": "Khúc Thừa Dụ",
      "type": "xã",
      "area": 28.79,
      "population": 33784,
      "adminCenter": "Trụ sở cũ của Đảng ủy, HĐND, UBND Hồng Phong",
      "longitude": 106.336,
      "latitude": 20.7391,
      "beforeMerger": "Xã Bình Xuyên, Xã Hồng Phong (huyện Ninh Giang), Xã Kiến Phúc",
      "wardCode": 1050
    },
    {
      "id": 1083,
      "code": "1083",
      "name": "Kiến An",
      "type": "phường",
      "area": 11.18,
      "population": 67236,
      "adminCenter": "Trụ sở cũ của Quận ủy, HĐND, UBND quận Kiến An, số 2 Cao Toàn",
      "longitude": 106.637,
      "latitude": 20.8157,
      "beforeMerger": "Phường Nam Sơn (quận Kiến An), Phường Đồng Hòa, Phường Bắc Sơn, Phường Trần Thành Ngọ, Phường Văn Đẩu",
      "wardCode": 1209
    },
    {
      "id": 1084,
      "code": "1084",
      "name": "Kiến Hải",
      "type": "xã",
      "area": 31.86,
      "population": 44862,
      "adminCenter": "Trụ sở cũ của UBND Tú Sơn, thôn 3",
      "longitude": 106.714,
      "latitude": 20.7107,
      "beforeMerger": "Xã Tân Phong, Xã Đại Hợp (huyện Kiến Thụy), Xã Tú Sơn, Xã Đoàn Xá",
      "wardCode": 997
    },
    {
      "id": 1085,
      "code": "1085",
      "name": "Kiến Hưng",
      "type": "xã",
      "area": 21.02,
      "population": 28044,
      "adminCenter": "Trụ sở UBND Kiến Hưng (trụ sở UBND Đại Hà cũ), thôn Cao Bộ",
      "longitude": 106.671,
      "latitude": 20.7167,
      "beforeMerger": "Xã Tân Trào (huyện Kiến Thụy), Xã Kiến Hưng, Xã Đoàn Xá",
      "wardCode": 995
    },
    {
      "id": 1086,
      "code": "1086",
      "name": "Kiến Minh",
      "type": "xã",
      "area": 16.32,
      "population": 26181,
      "adminCenter": "Trụ sở cũ của UBND Minh Tân, thôn Vũ Vị",
      "longitude": 106.689,
      "latitude": 20.7682,
      "beforeMerger": "Xã Minh Tân (huyện Kiến Thụy), Xã Đại Đồng, Xã Đông Phương",
      "wardCode": 1214
    },
    {
      "id": 1087,
      "code": "1087",
      "name": "Kiến Thụy",
      "type": "xã",
      "area": 20.18,
      "population": 37020,
      "adminCenter": "Trụ sở UBND huyện Kiến Thụy, số 8 Mạc Thái Tổ",
      "longitude": 106.655,
      "latitude": 20.7589,
      "beforeMerger": "Thị trấn Núi Đối, Xã Thanh Sơn (huyện Kiến Thụy), Xã Thuận Thiên, Xã Hữu Bằng, Xã Kiến Hưng",
      "wardCode": 1215
    },
    {
      "id": 1088,
      "code": "1088",
      "name": "Kim Thành",
      "type": "xã",
      "area": 33.79,
      "population": 42915,
      "adminCenter": "Trụ sở cũ của Đảng ủy, HĐND, UBND Đồng Cẩm",
      "longitude": 106.514,
      "latitude": 20.885,
      "beforeMerger": "Xã Đồng Cẩm, Xã Tam Kỳ, Xã Đại Đức, Xã Hòa Bình",
      "wardCode": 876
    },
    {
      "id": 1089,
      "code": "1089",
      "name": "Kinh Môn",
      "type": "phường",
      "area": 11.47,
      "population": 24948,
      "adminCenter": "Trụ sở của Thị ủy, HĐND, UBND thị Kinh Môn hiện tại",
      "longitude": 106.543,
      "latitude": 20.9806,
      "beforeMerger": "Phường An Lưu, Phường Hiệp An, Phường Long Xuyên",
      "wardCode": 1046
    },
    {
      "id": 1090,
      "code": "1090",
      "name": "Lạc Phượng",
      "type": "xã",
      "area": 24.71,
      "population": 28613,
      "adminCenter": "Trụ sở của Đảng ủy, HĐND, UBND Lạc Phượng hiện tại",
      "longitude": 106.452,
      "latitude": 20.7763,
      "beforeMerger": "Xã Quang Trung (huyện Tứ Kỳ), Xã Lạc Phượng, Xã Tiên Động",
      "wardCode": 1054
    },
    {
      "id": 1091,
      "code": "1091",
      "name": "Lai Khê",
      "type": "xã",
      "area": 30.07,
      "population": 42875,
      "adminCenter": "Trụ sở của Đảng ủy, HĐND, UBND Lai Khê hiện tại",
      "longitude": 106.433,
      "latitude": 20.978,
      "beforeMerger": "Xã Lai Khê, Xã Vũ Dũng, Xã Tuấn Việt, Xã Cộng Hoà, Xã Thanh An, Xã Cẩm Việt",
      "wardCode": 952
    },
    {
      "id": 1092,
      "code": "1092",
      "name": "Lê Chân",
      "type": "phường",
      "area": 5.65,
      "population": 161051,
      "adminCenter": "Số 10G, 10H, 10A Hồ Sen",
      "longitude": 106.683,
      "latitude": 20.8438,
      "beforeMerger": "Phường Hàng Kênh, Phường Dư Hàng Kênh, Phường Kênh Dương, Phường An Biên, Phường Trần Nguyên Hãn, Phường Vĩnh Niệm, Phường Cầu Đất, Phường Lạch Tray",
      "wardCode": 1207
    },
    {
      "id": 1093,
      "code": "1093",
      "name": "Lê Đại Hành",
      "type": "phường",
      "area": 31.62,
      "population": 24638,
      "adminCenter": "Trụ sở cũ của Đảng ủy, HĐND, UBND Tân Dân",
      "longitude": 106.397,
      "latitude": 21.0518,
      "beforeMerger": "Phường Tân Dân (thành phố Chí Linh), Phường An Lạc, Phường Đồng Lạc",
      "wardCode": 1032
    },
    {
      "id": 1094,
      "code": "1094",
      "name": "Lê Ích Mộc",
      "type": "phường",
      "area": 27.04,
      "population": 51853,
      "adminCenter": "Trụ sở cũ của UBND Quảng Thanh",
      "longitude": 106.617,
      "latitude": 20.9521,
      "beforeMerger": "Phường Quảng Thanh, Phường Lê Hồng Phong, Xã Quang Trung (thành phố Thủy Nguyên)",
      "wardCode": 1235
    },
    {
      "id": 1095,
      "code": "1095",
      "name": "Lê Thanh Nghị",
      "type": "phường",
      "area": 8.04,
      "population": 81500,
      "adminCenter": "Trụ sở cũ của Đảng ủy, HĐND, UBND Tân Bình",
      "longitude": 106.315,
      "latitude": 20.9305,
      "beforeMerger": "Phường Tân Bình, Phường Thanh Bình, Phường Lê Thanh Nghị, Phường Trần Phú",
      "wardCode": 836
    },
    {
      "id": 1096,
      "code": "1096",
      "name": "Lưu Kiếm",
      "type": "phường",
      "area": 42.17,
      "population": 49376,
      "adminCenter": "Trụ sở của UBND Lưu Kiếm",
      "longitude": 106.656,
      "latitude": 20.979,
      "beforeMerger": "Phường Trần Hưng Đạo (thành phố Thủy Nguyên), Phường Lưu Kiếm, Xã Liên Xuân, Xã Quang Trung (thành phố Thủy Nguyên)",
      "wardCode": 1181
    },
    {
      "id": 1097,
      "code": "1097",
      "name": "Mao Điền",
      "type": "xã",
      "area": 24.37,
      "population": 43333,
      "adminCenter": "Trụ sở cũ của Đảng ủy, HĐND, UBND Tân Trường",
      "longitude": 106.211,
      "latitude": 20.9312,
      "beforeMerger": "Xã Tân Trường, Xã Cẩm Đông, Xã Phúc Điền",
      "wardCode": 1024
    },
    {
      "id": 1098,
      "code": "1098",
      "name": "Nam An Phụ",
      "type": "xã",
      "area": 25.9,
      "population": 27841,
      "adminCenter": "Trụ sở cũ của Đảng ủy, HĐND, UBND Quang Thành",
      "longitude": 106.435,
      "latitude": 21.0153,
      "beforeMerger": "Xã Quang Thành, Xã Lạc Long, Xã Thăng Long, Xã Tuấn Việt, Xã Vũ Dũng, Xã Cộng Hòa",
      "wardCode": 973
    },
    {
      "id": 1099,
      "code": "1099",
      "name": "Nam Đồ Sơn",
      "type": "phường",
      "area": 21,
      "population": 30372,
      "adminCenter": "Trụ sở cũ của UBND Hợp Đức, tổ dân phố Đức Hậu",
      "longitude": 106.745,
      "latitude": 20.7253,
      "beforeMerger": "Phường Minh Đức (quận Đồ Sơn), Phường Bàng La, Phường Hợp Đức, Phường Vạn Hương, Phường Ngọc Xuyên",
      "wardCode": 996
    },
    {
      "id": 1100,
      "code": "1100",
      "name": "Nam Đồng",
      "type": "phường",
      "area": 19.67,
      "population": 24900,
      "adminCenter": "Trụ sở cũ của Đảng ủy, HĐND, UBND Tiền Tiến",
      "longitude": 106.355,
      "latitude": 20.9219,
      "beforeMerger": "Phường Nam Đồng, Xã Tiền Tiến",
      "wardCode": 1012
    },
    {
      "id": 1101,
      "code": "1101",
      "name": "Nam Sách",
      "type": "xã",
      "area": 19.75,
      "population": 36758,
      "adminCenter": "Trụ sở của Huyện ủy, HĐND, UBND huyện Nam Sách hiện tại",
      "longitude": 106.354,
      "latitude": 20.9805,
      "beforeMerger": "Thị trấn Nam Sách, Xã Hồng Phong (huyện Nam Sách), Xã Đồng Lạc",
      "wardCode": 993
    },
    {
      "id": 1102,
      "code": "1102",
      "name": "Nam Thanh Miện",
      "type": "xã",
      "area": 23.99,
      "population": 33230,
      "adminCenter": "Trụ sở cũ của Đảng ủy, HĐND, UBND Chi Lăng Nam",
      "longitude": 106.241,
      "latitude": 20.7235,
      "beforeMerger": "Xã Hồng Phong (huyện Thanh Miện), Xã Thanh Giang, Xã Chi Lăng Bắc, Xã Chi Lăng Nam",
      "wardCode": 1048
    },
    {
      "id": 1103,
      "code": "1103",
      "name": "Nam Triệu",
      "type": "phường",
      "area": 29.51,
      "population": 40224,
      "adminCenter": "Trụ sở cũ của UBND Nam Triệu Giang",
      "longitude": 106.747,
      "latitude": 20.9136,
      "beforeMerger": "Phường Nam Triệu Giang, Phường Lập Lễ, Phường Tam Hưng",
      "wardCode": 982
    },
    {
      "id": 1104,
      "code": "1104",
      "name": "Nghi Dương",
      "type": "xã",
      "area": 19.48,
      "population": 25660,
      "adminCenter": "Trụ sở cũ của UBND Kiến Quốc, thôn 4",
      "longitude": 106.63,
      "latitude": 20.7269,
      "beforeMerger": "Xã Ngũ Phúc (huyện Kiến Thụy), Xã Kiến Quốc, Xã Du Lễ",
      "wardCode": 1059
    },
    {
      "id": 1105,
      "code": "1105",
      "name": "Ngô Quyền",
      "type": "phường",
      "area": 5.81,
      "population": 88595,
      "adminCenter": "226 Lê Lai (trụ sở cơ quan Đảng)\n46 Lê Lai (UBND, Trung tâm phục vụ hành chính công)",
      "longitude": 106.704,
      "latitude": 20.8661,
      "beforeMerger": "Phường Máy Chai, Phường Vạn Mỹ, Phường Cầu Tre, Phường Gia Viên, Phường Đông Khê",
      "wardCode": 979
    },
    {
      "id": 1106,
      "code": "1106",
      "name": "Nguyễn Bỉnh Khiêm",
      "type": "xã",
      "area": 26.37,
      "population": 24575,
      "adminCenter": "Trụ sở cũ của UBND Trấn Dương",
      "longitude": 106.582,
      "latitude": 20.6477,
      "beforeMerger": "Xã Trấn Dương, Xã Hòa Bình, Xã Lý Học",
      "wardCode": 1116
    },
    {
      "id": 1107,
      "code": "1107",
      "name": "Nguyễn Đại Năng",
      "type": "phường",
      "area": 17.4,
      "population": 29083,
      "adminCenter": "Trụ sở cũ của Đảng ủy, HĐND, UBND Hiến Thành",
      "longitude": 106.567,
      "latitude": 20.9579,
      "beforeMerger": "Phường Thái Thịnh, Phường Hiến Thành, Xã Minh Hòa",
      "wardCode": 1033
    },
    {
      "id": 1108,
      "code": "1108",
      "name": "Nguyên Giáp",
      "type": "xã",
      "area": 27.21,
      "population": 28127,
      "adminCenter": "Trụ sở của Đảng ủy, HĐND, UBND Nguyên Giáp hiện tại",
      "longitude": 106.423,
      "latitude": 20.7507,
      "beforeMerger": "Xã Hà Kỳ, Xã Nguyên Giáp, Xã Hà Thanh, Xã Tiên Động",
      "wardCode": 1055
    },
    {
      "id": 1109,
      "code": "1109",
      "name": "Nguyễn Lương Bằng",
      "type": "xã",
      "area": 21.78,
      "population": 33838,
      "adminCenter": "Trụ sở cũ của Đảng ủy, HĐND, UBND Thanh Tùng",
      "longitude": 106.224,
      "latitude": 20.8353,
      "beforeMerger": "Xã Phạm Kha, Xã Nhân Quyền, Xã Thanh Tùng, Xã Đoàn Tùng",
      "wardCode": 894
    },
    {
      "id": 1110,
      "code": "1110",
      "name": "Nguyễn Trãi",
      "type": "phường",
      "area": 76.28,
      "population": 16098,
      "adminCenter": "Trụ sở cũ của Đảng ủy, HĐND, UBND Bến Tắm",
      "longitude": 106.448,
      "latitude": 21.1918,
      "beforeMerger": "Phường Bến Tắm, Xã Bắc An, Xã Hoàng Hoa Thám",
      "wardCode": 1028
    },
    {
      "id": 1111,
      "code": "1111",
      "name": "Nhị Chiểu",
      "type": "phường",
      "area": 39.28,
      "population": 43799,
      "adminCenter": "Trụ sở cũ của Đảng ủy, HĐND, UBND Phú Thứ",
      "longitude": 106.557,
      "latitude": 21.0346,
      "beforeMerger": "Phường Tân Dân (thị xã Kinh Môn), Phường Minh Tân, Phường Duy Tân, Phường Phú Thứ",
      "wardCode": 870
    },
    {
      "id": 1112,
      "code": "1112",
      "name": "Ninh Giang",
      "type": "xã",
      "area": 27.41,
      "population": 39535,
      "adminCenter": "Trụ sở của HĐND, UBND huyện Ninh Giang hiện tại",
      "longitude": 106.382,
      "latitude": 20.7388,
      "beforeMerger": "Thị trấn Ninh Giang, Xã Vĩnh Hòa (huyện Ninh Giang), Xã Hồng Dụ, Xã Hiệp Lực",
      "wardCode": 1053
    },
    {
      "id": 1113,
      "code": "1113",
      "name": "Phạm Sư Mạnh",
      "type": "phường",
      "area": 22.34,
      "population": 24919,
      "adminCenter": "Trụ sở cũ của Đảng ủy, HĐND, UBND Hiệp Sơn",
      "longitude": 106.512,
      "latitude": 21.0179,
      "beforeMerger": "Phường Phạm Thái, Phường An Sinh, Phường Hiệp Sơn",
      "wardCode": 1030
    },
    {
      "id": 1114,
      "code": "1114",
      "name": "Phù Liễn",
      "type": "phường",
      "area": 18.46,
      "population": 60733,
      "adminCenter": "Trụ sở cũ của UBND Văn Đẩu, số 618 Nguyễn Lương Bằng",
      "longitude": 106.633,
      "latitude": 20.794,
      "beforeMerger": "Phường Bắc Hà, Phường Ngọc Sơn, Thị trấn Trường Sơn, Phường Nam Sơn (quận Kiến An), Phường Đồng Hòa, Phường Bắc Sơn, Phường Trần Thành Ngọ, Phường Văn Đẩu",
      "wardCode": 1237
    },
    {
      "id": 1115,
      "code": "1115",
      "name": "Phú Thái",
      "type": "xã",
      "area": 28.89,
      "population": 46234,
      "adminCenter": "Trụ sở cũ của Huyện ủy, HĐND, UBND huyện Kim Thành",
      "longitude": 106.505,
      "latitude": 20.9594,
      "beforeMerger": "Thị trấn Phú Thái, Xã Kim Xuyên, Xã Kim Anh, Xã Kim Liên, Xã Thượng Quận",
      "wardCode": 868
    },
    {
      "id": 1116,
      "code": "1116",
      "name": "Quyết Thắng",
      "type": "xã",
      "area": 22.15,
      "population": 22560,
      "adminCenter": "Trụ sở cũ của UBND Tiên Cường, thôn Sinh Đan",
      "longitude": 106.517,
      "latitude": 20.7754,
      "beforeMerger": "Xã Đại Thắng, Xã Tiên Cường, Xã Tự Cường",
      "wardCode": 1070
    },
    {
      "id": 1117,
      "code": "1117",
      "name": "Tân An",
      "type": "xã",
      "area": 24.9,
      "population": 27563,
      "adminCenter": "Trụ sở cũ của Đảng ủy, HĐND, UBND Đức Phúc",
      "longitude": 106.312,
      "latitude": 20.7617,
      "beforeMerger": "Xã Tân Phong (huyện Ninh Giang), Xã An Đức, Xã Đức Phúc",
      "wardCode": 1051
    },
    {
      "id": 1118,
      "code": "1118",
      "name": "Tân Hưng",
      "type": "phường",
      "area": 14.18,
      "population": 38794,
      "adminCenter": "Trụ sở cũ của Đảng ủy, HĐND, UBND Hải Tân",
      "longitude": 106.337,
      "latitude": 20.9055,
      "beforeMerger": "Phường Hải Tân, Phường Tân Hưng, Xã Ngọc Sơn, Phường Trần Phú",
      "wardCode": 992
    },
    {
      "id": 1119,
      "code": "1119",
      "name": "Tân Kỳ",
      "type": "xã",
      "area": 27.76,
      "population": 38172,
      "adminCenter": "Trụ sở của Đảng ủy, HĐND, UBND Tân Kỳ hiện tại",
      "longitude": 106.342,
      "latitude": 20.8263,
      "beforeMerger": "Xã Đại Hợp (huyện Tứ Kỳ), Xã Tân Kỳ, Xã Dân An, Xã Kỳ Sơn, Xã Hưng Đạo (huyện Tứ Kỳ)",
      "wardCode": 895
    },
    {
      "id": 1120,
      "code": "1120",
      "name": "Tân Minh",
      "type": "xã",
      "area": 33,
      "population": 36598,
      "adminCenter": "Trụ sở cũ của UBND Cấp Tiến",
      "longitude": 106.552,
      "latitude": 20.6966,
      "beforeMerger": "Xã Cấp Tiến, Xã Kiến Thiết, Xã Đoàn Lập, Xã Tân Minh",
      "wardCode": 1145
    },
    {
      "id": 1121,
      "code": "1121",
      "name": "Thạch Khôi",
      "type": "phường",
      "area": 19.94,
      "population": 34432,
      "adminCenter": "Trụ sở của Đảng ủy, HĐND, UBND Thạch Khôi hiện tại",
      "longitude": 106.298,
      "latitude": 20.9011,
      "beforeMerger": "Phường Thạch Khôi, Xã Gia Xuyên, Xã Liên Hồng, Xã Thống Nhất",
      "wardCode": 847
    },
    {
      "id": 1122,
      "code": "1122",
      "name": "Thái Tân",
      "type": "xã",
      "area": 20.73,
      "population": 20334,
      "adminCenter": "Trụ sở của Đảng ủy, HĐND, UBND Thái Tân hiện tại",
      "longitude": 106.298,
      "latitude": 20.9762,
      "beforeMerger": "Xã Minh Tân (huyện Nam Sách), Xã An Sơn, Xã Thái Tân",
      "wardCode": 1020
    },
    {
      "id": 1123,
      "code": "1123",
      "name": "Thành Đông",
      "type": "phường",
      "area": 12.22,
      "population": 50307,
      "adminCenter": "Trụ sở cũ của Đảng ủy, HĐND, UBND và Công an Cẩm Thượng",
      "longitude": 106.325,
      "latitude": 20.9596,
      "beforeMerger": "Phường Cẩm Thượng, Phường Bình Hàn, Phường Nguyễn Trãi, Xã An Thượng",
      "wardCode": 837
    },
    {
      "id": 1124,
      "code": "1124",
      "name": "Thanh Hà",
      "type": "xã",
      "area": 25.9,
      "population": 36173,
      "adminCenter": "Trụ sở của Huyện ủy, HĐND, UBND huyện Thanh Hà",
      "longitude": 106.439,
      "latitude": 20.8856,
      "beforeMerger": "Thị trấn Thanh Hà, Xã Thanh Sơn (huyện Thanh Hà), Xã Thanh Tân",
      "wardCode": 975
    },
    {
      "id": 1125,
      "code": "1125",
      "name": "Thanh Miện",
      "type": "xã",
      "area": 33.47,
      "population": 45388,
      "adminCenter": "Trụ sở của Huyện ủy, HĐND, UBND huyện Thanh Miện hiện tại",
      "longitude": 106.24,
      "latitude": 20.7742,
      "beforeMerger": "Xã Cao Thắng, Xã Ngũ Hùng, Xã Tứ Cường, Thị trấn Thanh Miện",
      "wardCode": 892
    },
    {
      "id": 1126,
      "code": "1126",
      "name": "Thiên Hương",
      "type": "phường",
      "area": 21.1,
      "population": 45140,
      "adminCenter": "Trụ sở của UBND Thiên Hương",
      "longitude": 106.641,
      "latitude": 20.9073,
      "beforeMerger": "Phường Thiên Hương, Phường Hoàng Lâm, Phường Lê Hồng Phong, Phường Hoa Động",
      "wardCode": 1216
    },
    {
      "id": 1127,
      "code": "1127",
      "name": "Thượng Hồng",
      "type": "xã",
      "area": 24.01,
      "population": 24584,
      "adminCenter": "Trụ sở cũ của Đảng ủy, HĐND, UBND Thái Hòa",
      "longitude": 106.188,
      "latitude": 20.8367,
      "beforeMerger": "Xã Bình Xuyên (huyện Bình Giang), Xã Thanh Tùng, Xã Đoàn Tùng, Xã Thúc Kháng, Xã Thái Minh, Xã Tân Hồng, Xã Thái Dương, Xã Thái Hòa",
      "wardCode": 1047
    },
    {
      "id": 1128,
      "code": "1128",
      "name": "Thủy Nguyên",
      "type": "phường",
      "area": 45.34,
      "population": 71731,
      "adminCenter": "Trụ sở của UBND TP Thủy Nguyên hiện tại",
      "longitude": 106.698,
      "latitude": 20.8907,
      "beforeMerger": "Phường Dương Quan, Phường Thủy Đường, Phường Hoa Động, Phường An Lư, Phường Thủy Hà",
      "wardCode": 981
    },
    {
      "id": 1129,
      "code": "1129",
      "name": "Tiên Lãng",
      "type": "xã",
      "area": 27.89,
      "population": 40446,
      "adminCenter": "Trụ sở cũ của Huyện ủy, Mặt trận TQVN huyện Tiên Lãng",
      "longitude": 106.542,
      "latitude": 20.7349,
      "beforeMerger": "Thị trấn Tiên Lãng, Xã Quyết Tiến, Xã Tiên Thanh, Xã Khởi Nghĩa",
      "wardCode": 1162
    },
    {
      "id": 1130,
      "code": "1130",
      "name": "Tiên Minh",
      "type": "xã",
      "area": 36.48,
      "population": 36236,
      "adminCenter": "Trụ sở cũ của UBND Tân Minh, thôn Đông Quy, Tân Minh (Toàn Thắng cũ)",
      "longitude": 106.604,
      "latitude": 20.6953,
      "beforeMerger": "Xã Tiên Thắng, Xã Tiên Minh, Xã Tân Minh",
      "wardCode": 1157
    },
    {
      "id": 1131,
      "code": "1131",
      "name": "Trần Hưng Đạo",
      "type": "phường",
      "area": 66.89,
      "population": 35932,
      "adminCenter": "Trụ sở cũ của Đảng ủy, HĐND, UBND Cộng Hòa",
      "longitude": 106.371,
      "latitude": 21.1515,
      "beforeMerger": "Xã Lê Lợi, Xã Hưng Đạo (thành phố Chí Linh), Phường Cộng Hòa",
      "wardCode": 1029
    },
    {
      "id": 1132,
      "code": "1132",
      "name": "Trần Liễu",
      "type": "phường",
      "area": 23.87,
      "population": 26696,
      "adminCenter": "Trụ sở cũ của Đảng ủy, HĐND, UBND Thượng Quận",
      "longitude": 106.492,
      "latitude": 20.9958,
      "beforeMerger": "Phường An Phụ, Xã Hiệp Hòa, Xã Thượng Quận",
      "wardCode": 976
    },
    {
      "id": 1133,
      "code": "1133",
      "name": "Trần Nhân Tông",
      "type": "phường",
      "area": 39.97,
      "population": 27053,
      "adminCenter": "Trụ sở cũ của Đảng ủy, HĐND, UBND Hoàng Tân",
      "longitude": 106.469,
      "latitude": 21.1313,
      "beforeMerger": "Phường Hoàng Tân, Phường Hoàng Tiến, Phường Văn Đức",
      "wardCode": 1027
    },
    {
      "id": 1134,
      "code": "1134",
      "name": "Trần Phú",
      "type": "xã",
      "area": 24.99,
      "population": 35937,
      "adminCenter": "Trụ sở Đảng ủy, HĐND, UBND Trần Phú hiện tại",
      "longitude": 106.328,
      "latitude": 21.0319,
      "beforeMerger": "Xã Quốc Tuấn (huyện Nam Sách), Xã Hiệp Cát, Xã Trần Phú",
      "wardCode": 874
    },
    {
      "id": 1135,
      "code": "1135",
      "name": "Trường Tân",
      "type": "xã",
      "area": 24.56,
      "population": 31736,
      "adminCenter": "Trụ sở cũ của Đảng ủy, HĐND, UBND Nhật Quang",
      "longitude": 106.269,
      "latitude": 20.8055,
      "beforeMerger": "Xã Phạm Trấn, Xã Nhật Quang, Xã Thống Kênh, Xã Đoàn Thượng, Xã Quang Đức, Thị trấn Thanh Miện",
      "wardCode": 893
    },
    {
      "id": 1136,
      "code": "1136",
      "name": "Tứ Kỳ",
      "type": "xã",
      "area": 30.86,
      "population": 37792,
      "adminCenter": "Trụ sở của Huyện ủy, HĐND, UBND huyện Tứ Kỳ",
      "longitude": 106.391,
      "latitude": 20.8089,
      "beforeMerger": "Thị trấn Tứ Kỳ, Xã Minh Đức, Xã Quang Khải, Xã Quang Phục",
      "wardCode": 896
    },
    {
      "id": 1137,
      "code": "1137",
      "name": "Tứ Minh",
      "type": "phường",
      "area": 14.77,
      "population": 30416,
      "adminCenter": "Trụ sở cũ của Huyện ủy, HĐND, UBND huyện Cẩm Giàng",
      "longitude": 106.267,
      "latitude": 20.9252,
      "beforeMerger": "Xã Cẩm Đoài, Phường Tứ Minh, Thị trấn Lai Cách",
      "wardCode": 1019
    },
    {
      "id": 1138,
      "code": "1138",
      "name": "Tuệ Tĩnh",
      "type": "xã",
      "area": 17.78,
      "population": 27202,
      "adminCenter": "Trụ sở cũ của Đảng ủy, HĐND, UBND Cẩm Vũ",
      "longitude": 106.262,
      "latitude": 20.9738,
      "beforeMerger": "Xã Đức Chính, Xã Cẩm Vũ, Xã Cẩm Văn",
      "wardCode": 990
    },
    {
      "id": 1139,
      "code": "1139",
      "name": "Việt Hòa",
      "type": "xã",
      "area": 17.02,
      "population": 31001,
      "adminCenter": "Trụ sở của Đảng ủy, HĐND, UBND Việt Hòa hiện tại",
      "longitude": 106.254,
      "latitude": 20.9478,
      "beforeMerger": "Phường Việt Hòa, Xã Cao An, Phường Tứ Minh, Thị trấn Lai Cách",
      "wardCode": 989
    },
    {
      "id": 1140,
      "code": "1140",
      "name": "Việt Khê",
      "type": "xã",
      "area": 30.98,
      "population": 37936,
      "adminCenter": "Trụ sở của UBND Ninh Sơn (Phù Ninh cũ)",
      "longitude": 106.592,
      "latitude": 20.9951,
      "beforeMerger": "Xã Ninh Sơn, Xã Liên Xuân",
      "wardCode": 1236
    },
    {
      "id": 1141,
      "code": "1141",
      "name": "Vĩnh Am",
      "type": "xã",
      "area": 27.34,
      "population": 34562,
      "adminCenter": "Trụ sở cũ của UBND Tam Cường",
      "longitude": 106.519,
      "latitude": 20.6348,
      "beforeMerger": "Xã Tam Cường, Xã Cao Minh, Xã Liên Am",
      "wardCode": 1111
    },
    {
      "id": 1142,
      "code": "1142",
      "name": "Vĩnh Bảo",
      "type": "xã",
      "area": 30.6,
      "population": 45332,
      "adminCenter": "Trụ sở của UBND huyện Vĩnh Bảo hiện tại",
      "longitude": 106.487,
      "latitude": 20.6796,
      "beforeMerger": "Thị trấn Vĩnh Bảo, Xã Vĩnh Hưng (huyện Vĩnh Bảo), Xã Tân Hưng, Xã Tân Liên",
      "wardCode": 1179
    },
    {
      "id": 1143,
      "code": "1143",
      "name": "Vĩnh Hải",
      "type": "xã",
      "area": 32.21,
      "population": 37574,
      "adminCenter": "Trụ sở của UBND Vĩnh Hải (Thanh Lương cũ)",
      "longitude": 106.475,
      "latitude": 20.6361,
      "beforeMerger": "Xã Tiền Phong, Xã Vĩnh Hải",
      "wardCode": 1132
    },
    {
      "id": 1144,
      "code": "1144",
      "name": "Vĩnh Hòa",
      "type": "phường",
      "area": 21.66,
      "population": 28176,
      "adminCenter": "Trụ sở của UBND Vĩnh Hòa (Hiệp Hòa cũ)",
      "longitude": 106.432,
      "latitude": 20.6908,
      "beforeMerger": "Xã Vĩnh Hòa (huyện Vĩnh Bảo), Xã Hùng Tiến",
      "wardCode": 1177
    },
    {
      "id": 1145,
      "code": "1145",
      "name": "Vĩnh Lại",
      "type": "xã",
      "area": 26.15,
      "population": 38963,
      "adminCenter": "Trụ sở cũ của Đảng ủy, HĐND, UBND Nghĩa An",
      "longitude": 106.359,
      "latitude": 20.7819,
      "beforeMerger": "Xã Ứng Hòe, Xã Tân Hương, Xã Nghĩa An",
      "wardCode": 1052
    },
    {
      "id": 1146,
      "code": "1146",
      "name": "Vĩnh Thịnh",
      "type": "xã",
      "area": 21.5,
      "population": 26382,
      "adminCenter": "Trụ sở của UBND Trung Lập",
      "longitude": 106.475,
      "latitude": 20.7168,
      "beforeMerger": "Xã Thắng Thủy, Xã Trung Lập, Xã Việt Tiến",
      "wardCode": 1178
    },
    {
      "id": 1147,
      "code": "1147",
      "name": "Vĩnh Thuận",
      "type": "xã",
      "area": 23.5,
      "population": 28879,
      "adminCenter": "Trụ sở của UBND Vĩnh An",
      "longitude": 106.487,
      "latitude": 20.7414,
      "beforeMerger": "Xã Vĩnh An, Xã Giang Biên, Xã Dũng Tiến",
      "wardCode": 1065
    },
    {
      "id": 1148,
      "code": "1148",
      "name": "Yết Kiêu",
      "type": "xã",
      "area": 21.53,
      "population": 33499,
      "adminCenter": "Trụ sở của Đảng ủy, HĐND, UBND Yết Kiêu hiện tại",
      "longitude": 106.262,
      "latitude": 20.8746,
      "beforeMerger": "Xã Thống Nhất, Xã Lê Lợi (huyện Gia Lộc), Xã Yết Kiêu",
      "wardCode": 1058
    }
  ]
}